name,address,rating,reviews,website,lat,lng,category,no_website
Sphère,"18 Rue La Boétie, 75008 Paris, France",4.8,13276,https://restaurantsphere.com/,48.8742665,2.3169387,"establishment, food, point_of_interest, restaurant",False
Le Marais Restaurant Paris,"47 R. de Turbigo, 75003 Paris, France",4.6,2012,https://www.privateaser.com/lieu/44897-le-marais-restaurant,48.86513799999999,2.3540023,"establishment, food, point_of_interest, restaurant",False
Chouchou,"23 Bd de Sébastopol, 75001 Paris, France",4.7,24103,http://www.restaurantchouchouparis.fr/,48.8599744,2.3487234,"bar, establishment, food, point_of_interest, restaurant",False
Le Tout-Paris,"8 Quai du Louvre, 75001 Paris, France",4.6,2030,http://letoutparis.fr/?y_source=1_MjM2NzUwMDEtNzE1LWxvY2F0aW9uLndlYnNpdGU%3D,48.8587493,2.3422529,"establishment, food, point_of_interest, restaurant",False
Le Cinq,"31 Av. George V, 75008 Paris, France",4.6,1563,https://www.fourseasons.com/paris/dining/restaurants/le_cinq/?utm_source=google&utm_medium=organicsearch&utm_campaign=tor-par-fab-mid-seo-na&utm_content=na-na&utm_term=na,48.868849,2.300683,"bar, establishment, food, point_of_interest, restaurant",False
Le Paris Paris,"8 Rue de Montfaucon, 75006 Paris, France",4.4,1440,http://www.leparisparis.fr/,48.85257900000001,2.3357251,"cafe, establishment, food, point_of_interest, restaurant",False
Le Colimaçon,"44 Rue Vieille du Temple, 75004 Paris, France",4.7,2951,https://le-colimacon.fr/,48.85795100000001,2.3582686,"establishment, food, point_of_interest, restaurant",False
L'Oiseau Blanc,"19 Av. Kléber, 75116 Paris, France",4.6,1915,https://www.peninsula.com/en/paris/hotel-fine-dining/french-rooftop-loiseau-blanc,48.8707437,2.2933137,"establishment, food, point_of_interest, restaurant",False
La Petite Rose des Sables,"6 Rue de Lancry, 75010 Paris, France",4.9,1165,,48.8689454,2.3602061,"bar, establishment, food, point_of_interest, restaurant",True
L'Orangerie,"31 Av. George V, 75008 Paris, France",4.8,397,https://www.fourseasons.com/paris/dining/restaurants/l-orangerie/?utm_source=google&utm_medium=organicsearch&utm_campaign=tor-par-fab-mid-seo-na&utm_content=na-na&utm_term=na,48.8688845,2.300262500000001,"establishment, food, point_of_interest, restaurant",False
Les Baux de Paris,"71 Rue Mouffetard, 75005 Paris, France",4.7,1892,https://www.instagram.com/lesbaux_paris/,48.8423354,2.3500704,"bar, establishment, food, point_of_interest, restaurant",False
LArchimede | Restaurant Republique Paris 10 (Canal Saint Martin) | Terrasse,"11 Rue Marie et Louise, 75010 Paris, France",4.8,1344,https://larchimede.paris/,48.871889,2.366516,"bar, establishment, food, point_of_interest, restaurant",False
Restaurant Musa Oberkampf - Paris 11,"117 Rue Saint-Maur, 75011 Paris, France",4.9,1836,https://www.musa.paris/,48.86631240000001,2.376627,"bar, establishment, food, point_of_interest, restaurant",False
Restaurant Bus Toqué Paris,"107 Av. des Champs-Élysées, 75008 Paris, France",4.8,965,https://www.bustoque.fr/,48.871919,2.299742,"establishment, food, point_of_interest, restaurant, tourist_attraction",False
Au Pied de Cochon,"6 Rue Coquillière, 75001 Paris, France",4.4,22681,https://www.pieddecochon.com/,48.86351759999999,2.3437221,"cafe, establishment, food, meal_takeaway, point_of_interest, restaurant",False
Le Christine,"1 Rue Christine, 75006 Paris, France",4.6,2188,https://lechristine.becsparisiens.fr/,48.8543056,2.3402167,"establishment, food, point_of_interest, restaurant",False
Noûsh,"Enseigne bleue, 60 Rue Saint-Lazare, 75009 Paris, France",4.7,1021,https://www.restaurant-trinite.fr/noush,48.876922,2.3331904,"bar, establishment, food, point_of_interest, restaurant",False
Le Bistro des Augustins,"39 Quai des Grands Augustins, 75006 Paris, France",4.5,2488,https://lebistrodesaugustins.shop/,48.8546972,2.3420468,"establishment, food, point_of_interest, restaurant",False
Tigermilk,"77 Rue d'Aboukir, 75002 Paris, France",4.7,10120,https://tigermilkrestaurants.com/fr/restaurants/sentier-iie/,48.8679134,2.3473008,"establishment, food, point_of_interest, restaurant",False
Epicure,"112 Rue du Faubourg Saint-Honoré, 75008 Paris, France",4.7,1727,https://www.oetkerhotels.com/hotels/le-bristol-paris/restaurants-bars/epicure/?utm_source=google&utm_medium=organic&utm_campaign=google_local_epicure,48.8717373,2.3148528,"establishment, food, point_of_interest, restaurant",False
La Poule Noire,"61 Rue Sainte, 13001 Marseille, France",4.7,1440,http://www.restaurant-lapoulenoire.com/,43.2919232,5.3732203,"establishment, food, point_of_interest, restaurant",False
Alivetu - Table Méditerranéenne,"145 Rue Sainte, 13007 Marseille, France",4.9,874,https://alivetu-restaurant.fr/,43.29073,5.3670703,"establishment, food, point_of_interest, restaurant",False
"La Pagaille Restaurant, Lounge & Cocktail","37 Rue Caisserie, 13002 Marseille, France",4.8,748,https://la-pagaille.fr/,43.2970037,5.366064199999999,"bar, establishment, food, night_club, point_of_interest, restaurant",False
Le Bouchon Provençal,"6 Pl. aux Huiles, 13001 Marseille, France",4.6,2208,http://www.lebouchonprovencal.com/,43.2930343,5.3714979,"establishment, food, point_of_interest, restaurant",False
Ciel | Rooftop | Marseille,"17 Rue Haxo, 13001 Marseille, France",4.4,6672,https://www.ciel-rooftop.com/,43.2938075,5.3774274,"establishment, food, point_of_interest, restaurant",False
1860 Le Palais,"9 La Canebière Vieux Port, 13001 Marseille, France",4.5,1828,https://www.1860lepalais.fr/,43.2960548,5.3751573,"establishment, food, point_of_interest, restaurant",False
Bistrot l’Horloge,"11 Cr Honoré d'Estienne d'Orves, 13001 Marseille, France",4.6,2580,https://www.instagram.com/bistrotlhorloge?igsh=MTZ3M3pkajRnazVmZg%3D%3D&utm_source=qr,43.2928013,5.3744795,"bar, establishment, food, point_of_interest, restaurant",False
Aux Antipodes,"26 Rue Sainte, 13001 Marseille, France",4.8,1262,https://www.facebook.com/auxantipodesmarseille/,43.2925722,5.3753665,"establishment, food, point_of_interest, restaurant",False
La cigale vieux port,"92 Quai du Port, 13002 Marseille, France",4.4,2396,https://instagram.com/lacigale_marseille?igshid=YmMyMTA2M2Y=,43.2961168,5.3685814,"establishment, food, point_of_interest, restaurant",False
Acuda - Restaurant Marseille,"34 Pl. aux Huiles, 13001 Marseille, France",4.8,447,https://acudamarseille.com/,43.2923632,5.3716772,"establishment, food, point_of_interest, restaurant",False
Le Panier Marseillais,"1A Rue du Petit Puits, 13002 Marseille, France",4.5,4378,https://www.lepanierdemarseille.com/,43.29997909999999,5.3686834,"establishment, food, point_of_interest, restaurant, shopping_mall, store, tourist_attraction",False
Wood la cantine gourmande,"8 Rue de la Guirlande, 13002 Marseille, France",4.7,1088,https://woodlacantinegourmande.com/,43.2967907,5.3704969,"establishment, food, point_of_interest, restaurant",False
COIN COIN - Restaurant Marseille,"44 Rue Sainte, 13001 Marseille, France",4.6,940,https://www.coincoin-marseille.fr/,43.2923109,5.3737945,"bar, cafe, establishment, food, point_of_interest, restaurant, store",False
Ourea,"72 Rue de la Paix Marcel Paul, 13006 Marseille, France",4.9,791,http://www.ourea-restaurant.com/,43.2905868,5.3733714,"establishment, food, point_of_interest, restaurant",False
Chez Nous,"22 Pl. Notre Dame du Mont, 13006 Marseille, France",4.8,822,https://chez-nous-marseille.com/fr,43.291782,5.3841738,"establishment, food, point_of_interest, restaurant",False
Le Caribou Marseille,"38 Pl. Thiars, 13001 Marseille, France",4.5,2280,http://www.lecaribou13001.fr/,43.2933121,5.3727171,"bar, establishment, food, point_of_interest, restaurant",False
Ekume,"139 Rue Sainte, 13007 Marseille, France",4.8,646,http://www.ekume-restaurant.fr/,43.29080159999999,5.3674697,"establishment, food, point_of_interest, restaurant",False
Chez Fonfon,"140 Rue du Vallon des Auffes, 13007 Marseille, France",4.2,3585,http://www.chez-fonfon.com/,43.28561879999999,5.3513021,"bar, establishment, food, point_of_interest, restaurant",False
Restaurant l'Inattendu,"35 Rue de la Paix Marcel Paul, 13001 Marseille, France",4.5,1253,,43.2920521,5.3729239,"establishment, food, point_of_interest, restaurant",True
Le Bistro Du Panier,"58 Rue Caisserie, 13002 Marseille, France",4.8,740,,43.2969832,5.366580799999999,"establishment, food, point_of_interest, restaurant",True
Carmelo,"7 Rue Neuve, 69001 Lyon, France",4.8,37005,https://www.bigmammagroup.com/fr/restaurants-italiens/carmelo?utm_source=google&utm_medium=organic&utm_campaign=mybusiness-website,45.7653129,4.8349721,"establishment, food, point_of_interest, restaurant",False
ART Restaurant Lyon,"3 Rue Sala, 69002 Lyon, France",4.8,1322,https://www.art-restaurant.fr/,45.7567929,4.8273723,"bar, establishment, food, point_of_interest, restaurant",False
L'Osteria Lyon La Part-Dieu,"133 Rue Servient, 69003 Lyon, France",4.8,6737,https://losteria.net/fr/restaurants/restaurant/lyon-part-dieu/,45.7615107,4.8542206,"establishment, food, point_of_interest, restaurant",False
Chez Grand-Mère,"11 Rue du Bœuf, 69005 Lyon, France",4.4,3577,http://www.chezgrandmere.fr/,45.7629204,4.8272185,"establishment, food, point_of_interest, restaurant",False
Agastache Restaurant,"134 Rue Duguesclin, 69006 Lyon, France",4.9,888,http://www.agastache-restaurant-lyon.fr/,45.7664172,4.8476368,"establishment, food, point_of_interest, restaurant",False
Canaima Restaurant,"24 Rue René Leynaud, 69001 Lyon, France",4.9,845,http://restaurantcanaima.fr/,45.7698684,4.8343093,"establishment, food, point_of_interest, restaurant",False
Le Bouchon des Cordeliers,"15 Rue Claudia, 69002 Lyon, France",4.7,2847,http://www.bouchondescordeliers.com/,45.7643717,4.8377061,"establishment, food, point_of_interest, restaurant",False
Le Vieux Lyon,"44 Rue Saint-Jean, 69005 Lyon, France",4.5,3933,https://restaurant-le-vieux-lyon.com/fr,45.7623386,4.827478699999999,"establishment, food, point_of_interest, restaurant",False
Garden Bistro - Restaurant Français Rue Mercière,"50 Rue Mercière, 69002 Lyon, France",4.7,2668,https://restaurant-garden-bistro.com/,45.7628001,4.8325874,"bar, establishment, food, night_club, point_of_interest, restaurant",False
La Table d’Ambre,"46 Rue Franklin, 69002 Lyon, France",4.8,753,https://www.latabledambre.fr/,45.751928,4.830551,"establishment, food, point_of_interest, restaurant",False
Les Fils À Maman Lyon,"25 Rue de l'Arbre Sec, 69001 Lyon, France",4.3,3645,https://www.lesfilsamaman.com/restaurants/lyon/?utm_source=google&utm_medium=organic&utm_campaign=mybusiness-website,45.7668011,4.837248,"bar, establishment, food, meal_delivery, meal_takeaway, point_of_interest, restaurant",False
LE COMPTOIR LIBANAIS - Restaurant Libanais Lyon 6ème,"54 Rue de Sèze, 69006 Lyon, France",4.9,9605,https://www.comptoirlibanais-lyon.fr/,45.768244,4.848801799999999,"establishment, food, point_of_interest, restaurant",False
Copain Comme Canard Lyon Part-Dieu,"22 Rue de la Part-Dieu, 69003 Lyon, France",4.7,1298,http://www.copaincommecanard.com/,45.75911929999999,4.8429989,"establishment, food, point_of_interest, restaurant",False
Les Infidèles,"57 Rue Mercière, 69002 Lyon, France",4.6,2199,https://lesinfideles-restaurant.com/,45.7622073,4.8328894,"establishment, food, point_of_interest, restaurant",False
LA GÂCHE,"2 Pl. du Petit Collège, 69005 Lyon, France",4.8,925,http://www.lagache-restaurant.fr/,45.7637588,4.8277242,"establishment, food, point_of_interest, restaurant",False
Canopée Lyon - Bistronomie de Partage,"12 Rue Major Martin, 69001 Lyon, France",4.8,365,https://www.restaurantcanopeelyon.com/,45.7666115,4.8326521,"establishment, food, point_of_interest, restaurant",False
LE F2 Restaurant,"2 Place de l'Hôpital, 28 Rue Louis Paufique, 69002 Lyon, France",4.6,1482,https://www.lef2.com/,45.7592145,4.835797400000001,"establishment, food, point_of_interest, restaurant",False
Tigermilk Lyon,"18 Rue Pizay, 69001 Lyon, France",4.7,5967,https://tigermilkrestaurants.com/fr/restaurants/lyon-viiie/,45.7669618,4.8357101,"establishment, food, point_of_interest, restaurant",False
Bouchon Tupin,"30 Rue Tupin, 69002 Lyon, France",4.8,2089,http://bouchontupin.com/,45.7628785,4.8349451,"establishment, food, point_of_interest, restaurant",False
L'Alsacien Lyon,"8 Rue Chavanne, 69001 Lyon, France",4.7,1700,http://www.lalsacien.com/restaurant-alsacien-flammekueche-lyon/,45.7652476,4.8322511,"bar, establishment, food, point_of_interest, restaurant",False
Les Sales Gosses (à TOULOUSE),"81 Rue Pierre-Paul Riquet, 31000 Toulouse, France",4.8,1958,https://restaurant.lessalesgosses.fr/,43.606032,1.453933,"establishment, food, point_of_interest, restaurant",False
Oh la vache !,"2 Rue d'Austerlitz, 31000 Toulouse, France",4.7,2047,,43.6054879,1.4475091,"establishment, food, point_of_interest, restaurant",True
Au Pois Gourmand restaurant terrasse gastronomique,"3 Rue Emile Heybrard, 31300 Toulouse, France",4.8,6919,http://pois-gourmand.fr/,43.609052,1.4096611,"establishment, food, point_of_interest, restaurant",False
Fogo,"6 Rue des Puits Clos, 31000 Toulouse, France",4.9,442,https://fogo-toulouse.fr/,43.6019429,1.4445828,"establishment, food, point_of_interest, restaurant",False
Petit Voyage - Restaurant Toulouse,"18 Rue Emile Cartailhac, 31000 Toulouse, France",4.9,916,https://instagram.com/petit.voyage_31,43.6074714,1.4403626,"cafe, establishment, food, meal_takeaway, point_of_interest, restaurant, store",False
Bistroquet Toulouse,"10 Rue Labeda, 31000 Toulouse, France",4.7,7159,https://linktr.ee/bistroquettoulouse,43.604626,1.448928,"bar, establishment, food, point_of_interest, restaurant",False
MAMA RESTAURANT TOULOUSE,"54 Bd Lazare Carnot, 31000 Toulouse, France",4.5,1803,https://fr.mamashelter.com/toulouse/restaurants?utm_source=google+Maps&utm_medium=seo+maps&utm_campaign=seo+maps,43.6050267,1.4498231,"establishment, food, point_of_interest, restaurant",False
Hortùs Toulouse,"17 Rue Croix Baragnon, 31000 Toulouse, France",4.9,858,https://hortus-toulouse.fr/,43.5995326,1.4466319,"establishment, food, point_of_interest, restaurant",False
Restaurant Une Table à Deux,"10 Rue de la Pleau, 31000 Toulouse, France",4.8,865,http://www.unetableadeux.fr/,43.59679999999999,1.4470155,"establishment, food, point_of_interest, restaurant",False
Gaïa,"24 Rue Croix Baragnon, 31000 Toulouse, France",4.5,3760,https://gaia-toulouse.com/,43.599856,1.4479622,"establishment, food, point_of_interest, restaurant",False
L' Atrium - Restaurant Toulouse,"Plaza Hôtel ****, 7 Pl. du Capitole, 31000 Toulouse, France",4.6,863,https://www.restaurantatrium.fr/,43.603728,1.442771,"bar, establishment, food, point_of_interest, restaurant",False
Hope! Restaurant Toulouse,"19 Rue Saint-Bernard, 31000 Toulouse, France",4.9,386,https://sites.google.com/view/hope-restaurant-pates-gnocchis/accueil,43.6092033,1.4443374,"establishment, food, point_of_interest, restaurant",False
Reflets Toulouse,"27/29 Rue Charles Viguerie, 31300 Toulouse, France",4.9,209,https://www.reflets-toulouse.com/,43.60026089999999,1.4351447,"establishment, food, point_of_interest, restaurant",False
Aux Pieds sous la Table,"4, 8 Rue Arnaud Bernard 6, 31000 Toulouse, France",4.6,2690,https://auxpiedssouslatable.fr/,43.6096419,1.4392784,"establishment, food, point_of_interest, restaurant",False
La Cuisine À Mémé,"17 Rue des Couteliers, 31000 Toulouse, France",4.7,927,http://www.lacuisineameme.fr/,43.5984948,1.4417373,"establishment, food, point_of_interest, restaurant",False
L'Os à Moëlle Toulouse,"14 Rue Roquelaine, 31000 Toulouse, France",4.5,1407,https://www.losamoelletoulouse.com/,43.610543,1.445354,"establishment, food, point_of_interest, restaurant",False
BOCA - Tapas españolas,"54 Rue Peyrolières, 31000 Toulouse, France",4.8,1709,https://www.boca-toulouse.fr/,43.6020984,1.4411283,"bar, establishment, food, point_of_interest, restaurant",False
Restaurant Le Restaurant,"28 Rue Peyrolières, 31000 Toulouse, France",4.8,968,http://www.lerestaurant-toulouse.fr/,43.6008656,1.4407696,"establishment, food, point_of_interest, restaurant",False
Liquides resto à boire - Toulouse,"6 Rue des Gestes 2-4, 31000 Toulouse, France",4.6,1022,https://www.privateaser.com/lieu/52482-liquides-resto-a-boire,43.6030488,1.4421999,"bar, establishment, food, point_of_interest, restaurant",False
Cécile,"43 Pl. des Carmes, 31000 Toulouse, France",4.8,1531,https://cecile-toulouse.fr/,43.5974864,1.444595,"establishment, food, point_of_interest, restaurant",False
Le Plongeoir,"60 Bd Franck Pilatte, 06300 Nice, France",4.2,3620,https://www.leplongeoir.com/,43.6919027,7.290909,"bar, establishment, food, point_of_interest, restaurant",False
La Rotonde Nice,"37 Prom. des Anglais, 06000 Nice, France",4.4,980,https://www.lenegresco.com/restaurants/la-rotonde,43.694393,7.2579107,"establishment, food, point_of_interest, restaurant",False
Restaurant JAN,"12 Rue Lascaris, 06300 Nice, France",4.8,1116,http://www.restaurantjan.com/,43.6998607,7.2848981,"establishment, food, point_of_interest, restaurant",False
Plage Beau Rivage Nice,"107 Quai des États-Unis, 06300 Nice, France",4.1,3622,https://plagenicebeaurivage.com/,43.6947918,7.2695451,"bar, establishment, food, night_club, point_of_interest, restaurant",False
Château Eza,"Rue de la Pise, 06360 Èze, France",4.6,1542,http://www.chateaueza.com/,43.72769,7.3611586,"establishment, food, lodging, point_of_interest, restaurant",False
Castel Plage,"8 Quai des États-Unis, 06300 Nice, France",4.3,3308,http://www.castelplage.com/,43.6943897,7.278428399999999,"bar, establishment, food, point_of_interest, restaurant",False
Boccaccio,"7 Rue Massena, 06000 Nice, France",4.4,4979,https://www.boccaccio-nice.com/,43.697682,7.268434999999999,"establishment, food, point_of_interest, restaurant",False
Mayssa Beach,"9 Pl. Wilson, 06230 Villefranche-sur-Mer, France",4.6,2504,https://www.mayssabeach.fr/,43.7025059,7.3122182,"bar, establishment, food, point_of_interest, restaurant",False
"La Pinède Restaurant, Cap D'Ail","10 Av. Raymond Gramaglia, 06320 Cap-d'Ail, France",4.5,1567,http://www.lapinederestaurant.com/,43.7201483,7.394512300000001,"bar, establishment, food, night_club, point_of_interest, restaurant",False
La Réserve de Nice,"62 Bd Franck Pilatte, 06300 Nice, France",4.5,1434,https://www.lareservedenice.fr/fr/,43.6915351,7.2914292,"establishment, food, point_of_interest, restaurant",False
La Cabane Villeneuve-Loubet,"1523 Bd Brigitte Bardot, 06270 Villeneuve-Loubet, France",4.3,1710,http://lacabane-restaurant-villeneuve-loubet.fr/,43.6302159,7.1352405,"establishment, food, point_of_interest, restaurant",False
Le Séjour,"11 Rue Grimaldi, 06000 Nice, France",4.7,860,https://www.sejourcafe.fr/,43.6989508,7.2649516,"establishment, food, point_of_interest, restaurant",False
La Môme,"6 Rue Florian, 06400 Cannes, France",4.4,3267,https://lamomecannes.com/,43.5517865,7.0234738,"bar, establishment, food, point_of_interest, restaurant",False
La Route du Miam,"1 Rue Molière, 06100 Nice, France",4.8,675,,43.7129321,7.2613805,"establishment, food, point_of_interest, restaurant",True
Restaurant Elaïo,"1 Prom. des Anglais, 06000 Nice, France",4.1,811,https://www.elaio-nice.com/,43.6952286,7.265778499999999,"establishment, food, park, point_of_interest, restaurant",False
Restaurant Le Boudoir,"10 Rue Chauvain, 06000 Nice, France",4.5,864,https://leboudoir-nice.com/,43.6989601,7.2713445,"establishment, food, point_of_interest, restaurant",False
Restaurant Art'N Blum - Restaurant Nantes,"10 Rue Léon Blum, 44000 Nantes, France",4.8,718,https://restaurant-artnblum.com/,47.2192303,-1.554909,"establishment, food, point_of_interest, restaurant",False
Lamaccotte - Restaurant Nantes,"7 Rue Saint-Denis, 44000 Nantes, France",4.8,818,https://restaurante.covermanager.com/lamaccotte-2/,47.2178313,-1.552175,"establishment, food, point_of_interest, restaurant",False
Chez Maman,"2 Rue de la Juiverie, 44000 Nantes, France",4.4,2367,http://www.chez-maman.com/,47.215748,-1.5527114,"establishment, food, point_of_interest, restaurant",False
Le Cambronne Bistrot Chic,"6 Rue de l'Héronnière, 44000 Nantes, France",4.6,2512,https://www.lecambronne-bistrotchic.fr/,47.2121617,-1.5618667,"establishment, food, point_of_interest, restaurant",False
Chez Franklin,"10 Rue Franklin, 44000 Nantes, France",4.5,1610,http://chezfranklin.fr/,47.2142641,-1.5631235,"bar, cafe, establishment, food, point_of_interest, restaurant, store",False
La Cigale,"4 Pl. Graslin, 44000 Nantes, France",4.2,10144,http://www.lacigale.com/,47.21278,-1.5620819,"establishment, food, point_of_interest, restaurant",False
Pilgrim Restaurant Nantes,"1 Pl. Graslin, 44000 Nantes, France",4.7,649,https://www.pilgrimrestaurant-nantes.com/,47.2131647,-1.561712,"establishment, food, point_of_interest, restaurant",False
Bonbourg,"2 Place Ste Elisabeth, 44000 Nantes, France",4.8,549,https://www.bonbourgrestaurant.fr/,47.219214,-1.5619802,"establishment, food, point_of_interest, restaurant",False
Le Lion et L'agneau,"40 Rue Fouré, 44000 Nantes, France",4.9,863,https://www.le-lion-et-lagneau.fr/,47.2116119,-1.5470049,"establishment, food, point_of_interest, restaurant",False
La Mandale Restaurant,"32 Rue Léon Jamin, 44000 Nantes, France",4.8,518,https://lamandalerestaurant.com/,47.2194637,-1.5590165,"establishment, food, point_of_interest, restaurant",False
SAIN,"93 Rue Maréchal Joffre, 44000 Nantes, France",4.9,1206,https://sain-nantes.com/,47.2199238,-1.5492551,"establishment, food, point_of_interest, restaurant",False
Pickles,"2 Rue du Marais, 44000 Nantes, France",4.8,986,http://www.pickles-restaurant.com/,47.2181121,-1.5558443,"establishment, food, point_of_interest, restaurant",False
L'Alsacien Nantes,"15 All. Commandant Charcot, 44000 Nantes, France",4.8,817,http://www.lalsacien.com/restaurant-alsacien-flammekueche-nantes/,47.2172452,-1.5453684,"bar, establishment, food, point_of_interest, restaurant",False
Le Homard Fries,"16 Rue Saint-Léonard, 44000 Nantes, France",4.7,1019,https://nantes.lehomardfrites.com/,47.217406,-1.5554184,"establishment, food, point_of_interest, restaurant",False
République - Restaurant Nantes,"7 Pl. de la République, 44200 Nantes, France",4.7,717,http://republiquecotejardin.com/,47.20488899999999,-1.5549923,"establishment, food, point_of_interest, restaurant",False
Freia,"22 Bd de Berlin, 44000 Nantes, France",4.8,1299,https://www.freia-restaurant.com/,47.2167031,-1.536549,"establishment, food, point_of_interest, restaurant",False
Melon,"6 Rue Copernic, 44000 Nantes, France",5.0,165,https://www.bistromelon.com/,47.2150258,-1.5647508,"establishment, food, point_of_interest, restaurant",False
Balthazar,"6 Rue Santeuil, 44000 Nantes, France",4.7,779,http://www.balthazar.family/,47.2130701,-1.5601635,"establishment, food, point_of_interest, restaurant",False
Le Cochon qui fume,"15 Rue de Strasbourg, 44000 Nantes, France",4.4,1756,https://foodcollect.fr/store/le-cochon-qui-fume/restaurant,47.2163415,-1.5516676,"bar, establishment, food, point_of_interest, restaurant",False
RESTAURANT PANIER D’OR,"13 Rue Armand Brossard, 44000 Nantes, France",5.0,589,https://panierdor.fr/,47.2179838,-1.5564095,"establishment, food, point_of_interest, restaurant",False
Restaurant Les Chauvins,"3 Rue du Faisan, 67000 Strasbourg, France",4.8,1190,https://www.restaurant-les-chauvins.fr/?utm_source=Google&utm_medium=My%20Business,48.5833917,7.7532083,"establishment, food, point_of_interest, restaurant",False
Restaurant Le Kuhn,"15 Rue Kuhn, 67000 Strasbourg, France",4.6,2645,http://www.lekuhn.com/,48.5848711,7.737640300000001,"establishment, food, point_of_interest, restaurant",False
Au Vieux Strasbourg,"5 Rue du Maroquin, 67000 Strasbourg, France",4.3,2887,http://vieuxstrasbourg.fr/,48.58054440000001,7.7507889,"establishment, food, point_of_interest, restaurant",False
Le Tire-Bouchon,"5 Rue des Tailleurs de Pierre, 67000 Strasbourg, France",4.3,5441,https://www.letirebouchon.fr/,48.58059309999999,7.7506662,"establishment, food, point_of_interest, restaurant",False
La Fignette,"5 Rue de la Vignette, 67000 Strasbourg, France",4.6,7454,https://lafignette.com/,48.5824612,7.7426774,"establishment, food, point_of_interest, restaurant",False
Le Chapitre - Strasbourg,"95 Rue de Bâle, 67100 Strasbourg, France",4.9,1718,https://restaurantlechapitre.fr/,48.56726690000001,7.765401000000001,"establishment, food, point_of_interest, restaurant",False
Le Banquet des Sophistes,"5 Rue d'Austerlitz, 67000 Strasbourg, France",4.8,2181,https://le-banquet.com/,48.5787779,7.7520478,"establishment, food, point_of_interest, restaurant",False
La Cuiller à Pot,"18b Rue Finkwiller, 67000 Strasbourg, France",4.8,840,http://www.lacuillerapot.fr/,48.5787291,7.7425071,"establishment, food, point_of_interest, restaurant",False
La Hache,"11 Rue de la Douane, 67000 Strasbourg, France",4.6,4516,https://www.la-hache.com/,48.5795016,7.749161200000001,"establishment, food, point_of_interest, restaurant",False
La Corde à Linge,"2 Pl. Benjamin Zix, 67000 Strasbourg, France",4.2,8860,https://www.lacordealinge.com/,48.58119749999999,7.7426199,"bar, establishment, food, point_of_interest, restaurant",False
L'Oignon,"4 Rue des Moulins, 67000 Strasbourg, France",4.7,2243,https://www.restaurantloignon.fr/,48.5814329,7.741426700000001,"establishment, food, point_of_interest, restaurant",False
Le Bistrot Des Cocottes,"5 Rue du Saumon, 67000 Strasbourg, France",4.6,1088,http://www.lebistrotdescocottes.fr/,48.582199,7.746632999999999,"establishment, food, point_of_interest, restaurant",False
Aux Armes de Strasbourg,"9 Pl. Gutenberg, 67000 Strasbourg, France",4.3,3339,http://auxarmesdestrasbourg.com/,48.58091570000001,7.7486527,"establishment, food, point_of_interest, restaurant",False
Restaurant Gurtlerhoft,"13 Pl. de la Cathédrale, 67000 Strasbourg, France",4.4,4569,http://www.gurtlerhoft.fr/,48.5818765,7.749532500000001,"establishment, food, point_of_interest, restaurant",False
La Petite Mairie - Restaurant traditionnel,"8 Rue Brûlée, 67000 Strasbourg, France",4.6,1466,,48.5845012,7.7513863,"establishment, food, point_of_interest, restaurant",True
Blue Flamingo,"Presqu'île André-Malraux, 67000 Strasbourg, France",4.8,1472,http://www.blue-flamingo.fr/,48.5741577,7.7594714,"bar, establishment, food, point_of_interest, restaurant",False
Les Chefs d’Oeuvre d'Alsace,"8 Grand'Rue, 67000 Strasbourg, France",4.6,1638,,48.58258439999999,7.739464799999999,"establishment, food, point_of_interest, restaurant",True
Le Schnockeloch Restaurant Alsacien Strasbourg - Tarte flambée Flammekueche,"2 Rue du Faubourg-National, 67000 Strasbourg, France",4.4,3379,https://www.schnockeloch.com/,48.5827489,7.7381137,"establishment, food, point_of_interest, restaurant",False
Restaurant Bar - Les Opportunistes - Strasbourg,"3 Rle de la Bruche, 67000 Strasbourg, France",4.9,483,https://lesopportunistes.fr/,48.5804048,7.7567872,"establishment, food, point_of_interest, restaurant",False
Chez l’Oncle Freddy,"9 Rue des Moulins, 67000 Strasbourg, France",4.4,2947,http://www.chezlonclefreddy.com/,48.5801835,7.7424875,"establishment, food, point_of_interest, restaurant",False
Le Bistrok Montpellier,"47 Rue de l'Aiguillerie, 34000 Montpellier, France",4.8,846,https://lebistrok.com/restaurant-montpellier/,43.61210150000001,3.8791063,"establishment, food, point_of_interest, restaurant",False
Les Fils À Maman Montpellier,"12 Rue du Petit Saint-Jean, 34000 Montpellier, France",4.5,4143,https://www.lesfilsamaman.com/restaurants/montpellier/?utm_source=google&utm_medium=organic&utm_campaign=mybusiness-website,43.60798870000001,3.8755395,"bar, establishment, food, meal_delivery, meal_takeaway, point_of_interest, restaurant",False
M&lice,"216 Rue Elie Wiesel, 34000 Montpellier, France",4.7,4534,https://melice.fr/,43.599685,3.901824,"bar, cafe, establishment, food, meal_takeaway, point_of_interest, restaurant, store",False
GOYA Montpellier Restaurant,"216 Rue Elie Wiesel, 34000 Montpellier, France",4.7,1382,http://goyarestaurant.com/,43.5992272,3.9014478,"establishment, food, point_of_interest, restaurant",False
Casa Di Giorgio - Restaurant Italien à Montpellier,"10 Rue de la Loge, 34000 Montpellier, France",4.4,3643,https://groupe-tandem.fr/casa-di-giorgio-restaurantitalien-montpellier/,43.6096669,3.8776013,"establishment, food, point_of_interest, restaurant",False
LE GURU,"36 Rue de l'Argenterie, 34000 Montpellier, France",4.7,696,,43.6081549,3.8773556,"establishment, food, point_of_interest, restaurant",True
Restaurant Il Bar A Pizze - Montpellier,"290 Av. Théroigne de Méricourt, 34000 Montpellier, France",4.9,2094,https://ilbarapizze.fr/,43.5976059,3.899614699999999,"establishment, food, meal_takeaway, point_of_interest, restaurant",False
"Restaurant Leclère, Cuisine d’arrivage.","8 Rue André Michel, 34000 Montpellier, France",4.9,784,http://www.restaurantleclere.com/,43.6067829,3.873926699999999,"establishment, food, point_of_interest, restaurant",False
Bambino Rocco,"20 Rue de l'Aiguillerie, 34000 Montpellier, France",4.7,1804,https://bambinorocco.com/,43.6106565,3.877909,"bar, establishment, food, point_of_interest, restaurant",False
Le Bourdon,"35 Rue Saint-Guilhem, 34000 Montpellier, France",4.6,624,https://restaurant-le-bourdon-montpellier.jimdosite.com/,43.6088937,3.8740388,"establishment, food, point_of_interest, restaurant",False
Le 17.45 Montpellier - Planches à composer,"6 Pl. Pétrarque, 34000 Montpellier, France",4.9,585,https://www.le17-45.fr/,43.6106304,3.8783447,"establishment, food, point_of_interest, restaurant",False
CÉNA - Restaurant gastronomique Montpellier,"2 Pl. Pétrarque, 34000 Montpellier, France",4.8,456,https://www.cena-montpellier.fr/fr/,43.6106723,3.8784814,"establishment, food, point_of_interest, restaurant",False
Le Sheri's - Restaurant Français Montpellier,"59 Rue de l'Aiguillerie, 34000 Montpellier, France",4.7,384,https://www.le-sheris-restaurant-montpellier.fr/,43.61278129999999,3.8790929,"establishment, food, point_of_interest, restaurant",False
Le Couperet,"3 Rue des Teissiers, 34000 Montpellier, France",4.5,931,https://www.le-couperet-smokehouse-restaurant.fr/,43.6087393,3.8752137,"bar, establishment, food, point_of_interest, restaurant",False
Rosemarie,"3 Rue des Sœurs Noires, 34000 Montpellier, France",4.4,5472,https://rosemarie-restaurant.fr/,43.6092058,3.8757957,"establishment, food, point_of_interest, restaurant",False
"ESENCIA, restaurant et cave à vins à Montpellier","11 Rue du Cheval Vert, 34000 Montpellier, France",4.9,251,https://www.esenciamontpellier.com/,43.6057559,3.8747374,"bar, establishment, food, liquor_store, point_of_interest, restaurant, store",False
La Grange,"30 Rue Jean Jacques Rousseau, 34000 Montpellier, France",4.8,310,,43.612421,3.872994599999999,"establishment, food, point_of_interest, restaurant",True
Maison Marguerite - Restaurant à Montpellier,"2 Imp. Périer, 34000 Montpellier, France",4.8,567,https://maisonmarguerite34.fr/,43.6105852,3.8761991,"establishment, food, point_of_interest, restaurant",False
COMME UN DIMANCHE SOUS LE FIGUIER Grillades à la braise /Montpellier,"15 Rue du Petit Saint-Jean, 34000 Montpellier, France",4.6,1150,http://www.dimanchesouslefiguier.fr/,43.6082167,3.8754583,"establishment, food, point_of_interest, restaurant",False
"MAMY, Restaurant & Bar","7 Pl. Chabaneau, 34000 Montpellier, France",4.9,282,https://www.mamymontpellier.fr/,43.6113973,3.8760801,"establishment, food, point_of_interest, restaurant",False
Les Drôles BORDEAUX,"21 Rue Saint-Rémi, 33000 Bordeaux, France",4.7,2289,https://www.restaurantlesdroles.fr/,44.8414018,-0.5717426999999999,"establishment, food, point_of_interest, restaurant",False
MAMA RESTAURANT BORDEAUX,"19 Rue Poquelin Molière, 33000 Bordeaux, France",4.7,1673,https://fr.mamashelter.com/bordeaux/restaurants?utm_source=google+Maps&utm_medium=seo+maps&utm_campaign=seo+maps,44.8399811,-0.5774148,"establishment, food, point_of_interest, restaurant",False
Palatino,"8 Rue de la Merci, 33000 Bordeaux, France",4.9,25205,https://www.bigmammagroup.com/fr/restaurants-italiens/palatino?utm_source=google&utm_medium=organic&utm_campaign=mybusiness-website,44.8388996,-0.5735102,"establishment, food, meal_takeaway, point_of_interest, restaurant",False
Les Fils à Maman Bordeaux,"19 rue Des Faussets, Pl. Saint-Pierre, 33000 Bordeaux, France",4.4,3350,https://www.lesfilsamaman.com/restaurants/bordeaux/?utm_source=google&utm_medium=organic&utm_campaign=mybusiness-website,44.8402924,-0.5707148,"bar, establishment, food, meal_delivery, meal_takeaway, point_of_interest, restaurant",False
French House,"7 Pl. Puy Paulin, 33000 Bordeaux, France",4.7,4183,http://french-house.com/,44.8413158,-0.5762136,"bar, cafe, establishment, food, point_of_interest, restaurant, store",False
Tigermilk Bordeaux,"1 Rue des Lauriers, 33000 Bordeaux, France",4.8,5496,https://tigermilkrestaurants.com/fr/restaurants/bordeaux-bourse/,44.84106060000001,-0.5724243999999999,"establishment, food, point_of_interest, restaurant",False
La Fine Bouche,"30 Rue du Hâ, 33000 Bordeaux, France",4.9,939,http://www.lafinebouche33.com/,44.8361154,-0.5769021999999999,"establishment, food, point_of_interest, restaurant",False
Arcada,"13 Rue de la Rousselle, 33000 Bordeaux, France",4.8,1156,https://www.arcada-restaurant.fr/,44.8375214,-0.5691006,"establishment, food, point_of_interest, restaurant",False
L'Escalette,"6 Rue de la Boétie, 33000 Bordeaux, France",4.8,559,http://www.lescalette.net/,44.839377,-0.5801141,"establishment, food, point_of_interest, restaurant",False
Restaurant Influences,"36 Rue Saint-Sernin, 33000 Bordeaux, France",4.8,1168,http://www.restaurant-influences.com/,44.8406881,-0.5822909,"establishment, food, point_of_interest, restaurant",False
Demeter,"9 Rue Ausone, 33000 Bordeaux, France",4.7,722,http://www.restaurantdemeter.com/,44.8383013,-0.5686540999999999,"establishment, food, point_of_interest, restaurant",False
Restaurant LouLou.,"16 Rue de la Cr des Aides, 33000 Bordeaux, France",4.6,966,https://louloubordeaux.com/,44.8395708,-0.5699362,"establishment, food, point_of_interest, restaurant",False
Blind,"12 Rue Castelnau d'Auros, 33000 Bordeaux, France",4.7,874,https://www.blindbordeaux.com/,44.8409752,-0.5817779,"establishment, food, point_of_interest, restaurant",False
Le Vieux Chaudron,"31 Rue du Pas-Saint-Georges, 33000 Bordeaux, France",4.6,1298,https://www.le-vieux-chaudron.fr/,44.8392344,-0.5721286999999999,"establishment, food, point_of_interest, restaurant",False
L'Autre Petit Bois,"12 Pl. du Parlement, 33000 Bordeaux, France",4.5,3121,https://www.instagram.com/lautrepetitbois/,44.8408548,-0.5723573,"establishment, food, point_of_interest, restaurant",False
Ô p'tit Bahut,"10 Rue des Bahutiers, 33000 Bordeaux, France",4.8,661,https://www.optitbahut.fr/,44.8393163,-0.5705108999999999,"bar, establishment, food, point_of_interest, restaurant",False
Restaurant Son',"14 Rue Paul Louis Lande, 33000 Bordeaux, France",4.9,1282,https://www.son-restaurant.fr/,44.8345709,-0.5753652,"establishment, food, point_of_interest, restaurant",False
Melodie,"6 Rue des Faussets, 33000 Bordeaux, France",4.5,2661,https://restaurant-melodie.fr/,44.840631,-0.570333,"establishment, food, point_of_interest, restaurant",False
Passage Secret Bordeaux Restaurant,"19 Cr de l'Intendance, 33000 Bordeaux, France",4.7,278,https://restaurant-passage-secret.com/,44.8422837,-0.5763429999999999,"establishment, food, point_of_interest, restaurant",False
Zéphirine,"62 Rue Abbé de l'Épée, 33000 Bordeaux, France",4.9,646,http://www.zephirine.fr/,44.8419924,-0.5825625999999999,"establishment, food, point_of_interest, restaurant",False
Estaminet La CH’TITE BRIGITTE,"10 Rue des Bouchers, 59800 Lille, France",4.7,6609,https://www.chtitebrigitte.com/,50.6384841,3.058173,"establishment, food, point_of_interest, restaurant",False
Les Fils à Maman Lille,"41 Rue de Gand, 59000 Lille, France",4.5,5298,https://www.lesfilsamaman.com/restaurants/lille/?utm_source=google&utm_medium=organic&utm_campaign=mybusiness-website,50.6425969,3.0664301,"bar, establishment, food, meal_delivery, meal_takeaway, point_of_interest, restaurant",False
MAMA RESTAURANT LILLE,"97 Pl. Saint-Hubert, 59800 Lille, France",4.5,1959,https://fr.mamashelter.com/lille/restaurants/#booking-table?utm_source=google+Maps&utm_medium=seo+maps&utm_campaign=seo+maps,50.6385231,3.0716097,"establishment, food, point_of_interest, restaurant",False
La Bellezza Lille,"126 Rue Esquermoise, 59800 Lille, France",4.8,26501,https://www.bigmammagroup.com/fr/restaurants-italiens/la-bellezza-lille?utm_source=google&utm_medium=organic&utm_campaign=mybusiness-website,50.63897559999999,3.058805,"establishment, food, meal_takeaway, point_of_interest, restaurant",False
Restaurant Sébastopol,"1 Pl. Sébastopol, 59000 Lille, France",4.7,1061,http://www.restaurantsebastopol.com/,50.628867,3.059011,"establishment, food, point_of_interest, restaurant",False
Le Barbier qui fume Vieux Lille,"69 Rue de la Monnaie, 59000 Lille, France",4.4,3563,http://www.lebarbierquifume.fr/,50.6413749,3.0620997,"establishment, food, point_of_interest, restaurant, store",False
Estaminet Au Vieux De La Vieille,"2 Rue des Vieux Murs, 59800 Lille, France",4.5,7841,https://estaminetlille.fr/nos-estaminets/estaminet-au-vieux-de-la-vieille/,50.64089569999999,3.0613641,"cafe, establishment, food, point_of_interest, restaurant",False
"Les Marmites Lilloises, Bistrot de Copains","6 Rue de Pas, 59800 Lille, France",4.7,1068,https://www.marmiteslilloises.com/,50.6371218,3.0617006,"establishment, food, point_of_interest, restaurant",False
Les Compagnons de la Grappe,"26 Rue Lepelletier, 59800 Lille, France",4.5,5408,https://www.lescompagnonslille.com/,50.6385387,3.0628919,"establishment, food, point_of_interest, restaurant",False
La Petite Table - Estaminet Vieux Lille,"59 Rue de la Monnaie, 59000 Lille, France",4.6,1132,https://www.lapetitetable-vieuxlille.com/,50.6411768,3.0623371,"bar, establishment, food, liquor_store, point_of_interest, restaurant, store",False
Autour de Vous Lille,"81 Rue d'Angleterre, 59800 Lille, France",4.8,1409,https://www.autourdevouslille.fr/,50.6401052,3.0582049,"establishment, food, point_of_interest, restaurant",False
Bloempot,"22 Rue des Bouchers, 59800 Lille, France",4.6,1739,http://www.bloempot.fr/,50.638032,3.0580775,"establishment, food, point_of_interest, restaurant",False
La Petite Cour,"17 Rue du Cure Saint-Etienne, 59800 Lille, France",4.6,2294,http://www.lapetitecour-lille.fr/,50.6383699,3.062424,"establishment, food, point_of_interest, restaurant",False
La Fleur de Lille,"19 Rue de Gand, 59800 Lille, France",4.5,1000,https://lafleurdelille-restaurant.fr/,50.641816,3.0656383,"establishment, food, point_of_interest, restaurant",False
Come Prima Lille,"108 bis Bd de la Liberté, 59000 Lille, France",4.7,3565,https://www.comeprimalille.com/,50.629515,3.0654726,"bar, establishment, food, meal_delivery, meal_takeaway, point_of_interest, restaurant",False
"Les Casseroles Lilloises, Bistrot de copains!","150 Rue Solférino, 59800 Lille, France",4.7,4144,https://www.casseroleslilloises.com/,50.63138540000001,3.054307,"establishment, food, point_of_interest, restaurant",False
Brasserie Campion,"32 Rue Lepelletier, 59800 Lille, France",4.7,3579,https://lanouvellegarde.com/fr/brasserie-campion/,50.63868129999999,3.062533,"establishment, food, point_of_interest, restaurant",False
Magmatic by Ephemera,"11 Parv. Saint-Maurice, 59000 Lille, France",4.9,10400,https://www.ephemera-group.com/magmatic-lille?utm_source=google&utm_medium=organic&utm_campaign=mybusiness-website,50.6362876,3.0674307,"bar, establishment, food, point_of_interest, restaurant",False
Ô Cercle - Restaurant Lille,"79 Rue Jacquemars Giélée, 59800 Lille, France",4.8,664,https://ocerclebistrotmoderne.fr/fr,50.63404970000001,3.0547047,"bar, establishment, food, point_of_interest, restaurant",False
Le Scoop - Restaurant Vieux Lille,"64 Rue Saint-André, 59800 Lille, France",4.7,1537,http://www.le-scoop-lille.fr/,50.6447023,3.0576714,"establishment, food, point_of_interest, restaurant",False
Les Fils à Maman Rennes,"11 Rue du Champ Jacquet, 35000 Rennes, France",4.5,3221,https://www.lesfilsamaman.com/restaurants/rennes/?utm_source=google&utm_medium=organic&utm_campaign=mybusiness-website,48.113077,-1.6803748,"bar, establishment, food, meal_delivery, meal_takeaway, point_of_interest, restaurant",False
Chez Brume,"5 Rue de la Parcheminerie, 35000 Rennes, France",4.6,1051,https://www.chezbrume.fr/,48.1088569,-1.6805028,"establishment, food, point_of_interest, restaurant",False
La Saint-Georges,"11 Rue du Chapitre, 35000 Rennes, France",4.7,2624,https://www.creperie-saintgeorges.fr/,48.1109871,-1.6824695,"establishment, food, point_of_interest, restaurant, store",False
Bombance,"23 Rue de la Chalotais, 35000 Rennes, France",4.8,867,https://bombance-restaurant.fr/,48.1092138,-1.6823224,"bar, establishment, food, liquor_store, point_of_interest, restaurant, store",False
Restaurant IMA,"20 Bd de la Tour d'Auvergne, 35000 Rennes, France",4.8,889,https://ima.restaurant/,48.1066645,-1.684675,"establishment, food, point_of_interest, restaurant",False
Le Vasselot,"34 Rue Vasselot, 35000 Rennes, France",4.9,302,https://levasselotrennes.eatbu.com/?lang=fr,48.1085319,-1.676901,"establishment, food, point_of_interest, restaurant",False
Le Bistrot Des Remparts,"16 Rue Nantaise bât A, 35000 Rennes, France",4.8,525,http://www.lebistrotdesremparts.bzh/,48.111831,-1.6852555,"establishment, food, point_of_interest, restaurant",False
Fezi,"2 Rue des Carmes, 35000 Rennes, France",4.9,619,https://fezi-restaurant.fr/,48.1083538,-1.6762534,"establishment, food, point_of_interest, restaurant",False
Le bocal,"6 Rue d'Argentré, 35000 Rennes, France",4.7,396,,48.1095712,-1.6812688,"establishment, food, point_of_interest, restaurant",True
L'Ambassade de Rennes,"12 Rue de la Parcheminerie, 35000 Rennes, France",4.4,1566,https://restaurant-lambassade.fr/,48.10926320000001,-1.6808982,"bar, establishment, food, point_of_interest, restaurant",False
Gueuleton - Rennes,"96 Rue de la Poterie, 35200 Rennes, France",4.7,1507,https://www.gueuleton.fr/,48.0935642,-1.6431658,"establishment, food, point_of_interest, restaurant",False
LE PARIS-BREST - Restaurant,"Gare de, 35000 Rennes, France",4.6,1070,https://parisbrest.bzh/,48.10357279999999,-1.6718883,"establishment, food, point_of_interest, restaurant",False
La Taverne,"2 Rue de l'Alma, 35000 Rennes, France",4.2,4970,https://www.lataverne-rennes.com/,48.1047331,-1.6777501,"establishment, food, point_of_interest, restaurant",False
Le Grill,"35 Rue Poullain Duparc, 35000 Rennes, France",4.4,1912,http://www.legrill.fr/,48.1084976,-1.6827798,"establishment, food, point_of_interest, restaurant",False
Estime,"15 Rue du Chapitre, 35000 Rennes, France",4.8,603,https://estime-restaurant.com/,48.11099429999999,-1.682779,"establishment, food, point_of_interest, restaurant",False
La Chope,"3 Rue de la Chalotais, 35000 Rennes, France",4.4,1419,http://lachope.fr/,48.1092944,-1.6805608,"establishment, food, point_of_interest, restaurant",False
La Réserve,"36-38 Rue de la Visitation, 35000 Rennes, France",4.5,839,http://restaurant-lareserve-rennes.fr/,48.1138888,-1.6781039,"establishment, food, point_of_interest, restaurant",False
Kôlochô,"8 Rue Saint-Melaine, 35000 Rennes, France",4.8,1254,http://www.kolocho.fr/,48.11484429999999,-1.678542,"bakery, establishment, food, meal_takeaway, point_of_interest, restaurant, store",False
Restaurant La Petite Ourse,"48 Bd de la Liberté, 35000 Rennes, France",4.9,330,http://restaurantlapetiteourse.com/,48.1083062,-1.6828361,"establishment, food, point_of_interest, restaurant",False
Le 2 rue des Dames,"2 Rue des Dames, 35000 Rennes, France",4.8,623,http://www.le2ruedesdames.fr/,48.1106469,-1.6833444,"establishment, food, point_of_interest, restaurant",False
L'Atelier Entrecôte et Volaille - Reims,"89 Pl. Drouet d'Erlon, 51100 Reims, France",4.8,4942,https://latelierev.com/fr/restaurants/reims,49.2567022,4.0258695,"establishment, food, point_of_interest, restaurant",False
Le Tablier Reims,"30 Pl. Drouet d'Erlon, 51100 Reims, France",4.4,4465,https://www.nobigroupe.com/le-tablier-reims/,49.2549899,4.0276162,"bar, establishment, food, point_of_interest, restaurant",False
L'Alambic,"63 bis Rue de Chativesle, 51100 Reims, France",4.7,1056,http://www.restaurant-lalambic.fr/,49.2546905,4.0229982,"establishment, food, point_of_interest, restaurant",False
La Brigade - Restaurant Reims,"45 Pl. Drouet d'Erlon, 51100 Reims, France",4.7,1156,https://www.la-brigade.fr/,49.255403,4.026755,"bar, establishment, food, meal_delivery, meal_takeaway, point_of_interest, restaurant",False
Au Cul de Poule Restaurant Reims - Bistronomie Reims,"46 Bd Carteret, 51100 Reims, France",4.5,1214,https://www.auculdepoule.com/?utm_source=gmb,49.2578028,4.047922199999999,"establishment, food, point_of_interest, restaurant",False
"La table des sacres, Reims","6 Rue Gambetta, 51100 Reims, France",4.7,772,https://www.latabledessacres.fr/,49.2506564,4.035232,"establishment, food, point_of_interest, restaurant",False
Restaurant Gabrielle Toit Terrasse,"11 Rue des Fuseliers, 51100 Reims, France",4.6,2202,http://www.restaurant-gabrielle-reims.fr/,49.25273259999999,4.0328853,"bar, establishment, food, liquor_store, point_of_interest, restaurant, store",False
Le Millénaire,"4-6 Rue Bertin, 51100 Reims, France",4.7,1330,https://www.lemillenaire.com/,49.2561111,4.0341667,"establishment, food, point_of_interest, restaurant",False
BASTA ! RISTORANTE E BAR,"30 Rue de Mars, 51100 Reims, France",4.8,1492,https://www.basta-reims.fr/,49.2592789,4.031801199999999,"bar, establishment, food, point_of_interest, restaurant",False
Restaurant La Fontaine,"131 Rue du Barbâtre, 51100 Reims, France",4.9,445,https://www.instagram.com/restaurantlafontainereims/,49.2476586,4.0413667,"cafe, establishment, food, point_of_interest, restaurant",False
NONNA Restaurant Italien Reims,"Parvis de la Cathèdrale, 11 Rue des Fuseliers, 51100 Reims, France",4.6,1228,https://www.nonnareims.fr/,49.2527351,4.032882799999999,"establishment, food, point_of_interest, restaurant",False
Le Petit Basque,"13 Rue du Colonel Fabien, 51100 Reims, France",4.8,2011,https://www.le-petit-basque.fr/,49.2496683,4.0185814,"establishment, food, point_of_interest, restaurant",False
Le Paradis du Fruit - Reims,"71 Pl. Drouet d'Erlon, 51100 Reims, France",4.5,2645,https://restaurants.leparadisdufruit.fr/reims/?utm_source=google&utm_medium=organic&utm_campaign=mybusiness-website,49.25611809999999,4.0262613,"establishment, food, point_of_interest, restaurant",False
Restaurant Chez Nous,"32 Av. d'Épernay, 51100 Reims, France",4.7,822,http://chez-nous-restaurant-reims.eatbu.com/,49.24670099999999,4.0122554,"establishment, food, point_of_interest, restaurant",False
ARBANE,"7 Rue Noël, 51100 Reims, France",4.9,1237,http://www.arbane-philippe-mille.com/,49.257465,4.0272534,"establishment, food, point_of_interest, restaurant",False
Ö double A,"32 Pl. du Forum, 51100 Reims, France",4.8,210,,49.2571257,4.0345522,"establishment, food, point_of_interest, restaurant",True
L’ Agape - Restaurant Bistronomique,"2 Rue Tronsson Ducoudray, 51100 Reims, France",4.6,784,http://www.restaurantlatelierreims.com/,49.25405259999999,4.0312636,"establishment, food, point_of_interest, restaurant",False
L'Apostrophe,"59 Pl. Drouet d'Erlon, 51100 Reims, France",4.2,4913,https://www.lapostrophe-reims.com/,49.2557409,4.0265767,"bar, establishment, food, night_club, point_of_interest, restaurant",False
Restaurant Lexperience Reims,"83 Pl. Drouet d'Erlon, 51100 Reims, France",4.5,2330,https://www.lexperience-reims.fr/?utm_source=google&utm_medium=organic&utm_campaign=mybusiness-website,49.2564836,4.0259297,"bar, establishment, food, meal_takeaway, point_of_interest, restaurant",False
Le Coq Rouge Reims,"67 Rue Chanzy, 51100 Reims, France",4.7,514,https://www.le-coq-rouge.fr/,49.2515787,4.0337969,"establishment, food, liquor_store, point_of_interest, restaurant, store",False
Le Bouche A Oreille,"19 Rue Paul Doumer, 76600 Le Havre, France",4.8,832,https://m.facebook.com/people/Le-Bouche-%C3%80-Oreille-LBAO/100086088245014/,49.4926615,0.101055,"establishment, food, point_of_interest, restaurant",False
Taverne Paillette,"22 Rue Georges Braque, 76600 Le Havre, France",4.5,4030,https://www.taverne-paillette.com/,49.4953858,0.1031715,"establishment, food, point_of_interest, restaurant",False
La Voile Bleue,"58 Rue des Sauveteurs, 76600 Le Havre, France",4.5,1002,https://www.instagram.com/lavoilebleuelh/,49.4918603,0.0973407,"establishment, food, point_of_interest, restaurant",False
Le Grand Quai,"25 Quai de Southampton, 76600 Le Havre, France",4.5,1579,http://www.augrandquai.fr/,49.485994,0.1083894,"bar, cafe, establishment, food, point_of_interest, restaurant",False
A l'Ardoise,"85 Quai de Southampton, 76600 Le Havre, France",4.7,493,http://lardoise-lehavre.fr/,49.4865553,0.1105671,"establishment, food, point_of_interest, restaurant",False
L'Anecdote,"5 Rue Saint-Louis, 76600 Le Havre, France",4.7,1045,https://www.restaurantlanecdote.fr/,49.4894287,0.1118675,"establishment, food, point_of_interest, restaurant",False
La Bise Le Havre,"1 Rue Maurice Taconet, 76310 Sainte-Adresse, France",4.5,882,https://labise.cool/,49.50350479999999,0.0820726,"establishment, food, point_of_interest, restaurant",False
Le Bistrot des Grands Bassins,"23 Bd Amiral Mouchez, 76600 Le Havre, France",4.5,995,https://www.lebistrotdesgrandsbassins.fr/,49.4844162,0.1315531,"establishment, food, point_of_interest, restaurant",False
Bistrot Normand,"44 Rue Georges Braque, 76600 Le Havre, France",4.7,206,https://bistrot-normand-le-havre.com/,49.4953824,0.1022436,"bar, establishment, food, point_of_interest, restaurant",False
Restaurant Les Enfants Sages,"20 Rue Gustave Lennier, 76600 Le Havre, France",4.3,3443,https://restaurant-lesenfantssages.com/,49.4889361,0.1083676,"establishment, food, point_of_interest, restaurant",False
A Deux Pas d'Ici,"69 Rue Dauphine, 76600 Le Havre, France",4.7,940,http://adeuxpasdici.fr/,49.4882778,0.1136306,"establishment, food, point_of_interest, restaurant",False
P'tit Bouillon - LH,"11 Quai de l'Île, 76600 Le Havre, France",4.7,214,https://www.o-ptit-bouillon.fr/,49.48706259999999,0.1132077,"establishment, food, point_of_interest, restaurant",False
Restaurant Le Pure,"93 Quai de Southampton, 76600 Le Havre, France",4.6,630,http://restaurant-lepure-lehavre.com/,49.4866436,0.1107223,"establishment, food, point_of_interest, restaurant",False
Bistrot Canaille,"32 Rue du Général Faidherbe, 76600 Le Havre, France",4.4,799,https://www.bistrot-canaille.com/,49.4874181,0.1128489,"establishment, food, point_of_interest, restaurant",False
Bistrot Parisien,"39 Pl. de l'Hôtel de ville, 76600 Le Havre, France",4.3,3762,http://www.lebistrotparisienlh.com/,49.4928287,0.1061642,"bar, establishment, food, point_of_interest, restaurant",False
Bouchon Normand,"77 Rue Louis Brindeau, 76600 Le Havre, France",4.3,1437,https://bouchonnormand.fr/,49.4912532,0.1042609,"establishment, food, point_of_interest, restaurant",False
L'Imprévu,"29 Pl. des Halles Centrales, 76600 Le Havre, France",4.6,277,https://www.facebook.com/limprevulh/,49.4908454,0.1038585,"establishment, food, point_of_interest, restaurant",False
Le Diplodocus,"Le, 21 Rue Maréchal Gallieni, 76600 Le Havre, France",4.6,515,http://www.lediplodocus-restaurant-havre.fr/,49.4942901,0.113771,"establishment, food, point_of_interest, restaurant",False
Le Grand Large - Restaurant vue mer au Havre | Cuisine raffinée Terre & Mer,"11 Place Clemenceau, 76310 Sainte-Adresse, France",4.3,844,https://www.legrandlarge76.fr/,49.5025089,0.08561800000000001,"establishment, food, point_of_interest, restaurant",False
Le Garde-Manger,"40 Rue de l'Alma, 76600 Le Havre, France",4.6,464,,49.496009,0.098689,"establishment, food, point_of_interest, restaurant",True
La Cocotte Stéphanoise,"2 Rue Ferrer, 42000 Saint-Étienne, France",4.6,2478,https://saintetienne.sevensquares.fr/brasserie-saint-etienne-la-cocotte-stephanoise/,45.447465,4.41974,"establishment, food, point_of_interest, restaurant",False
La Bouche Pleine,"21 Pl. Chavanelle, 42000 Saint-Étienne, France",4.7,794,,45.4350713,4.3933719,"establishment, food, point_of_interest, restaurant",True
A La Table des Lys,"58 Rue Saint-Simon, 42000 Saint-Étienne, France",4.8,2028,https://www.latabledeslys.fr/,45.4549891,4.3688254,"establishment, food, point_of_interest, restaurant",False
Restaurant Un Eléphant dans Un Jeu de Quilles,"16 Rue Léon Nautin, 42000 Saint-Étienne, France",4.6,766,http://www.restaurant-un-elephant-dans-un-jeu-de-quilles.fr/,45.4347904,4.3912116,"establishment, food, point_of_interest, restaurant",False
Chez Les Fondus Saint Étienne,"4 Rue Sainte-Catherine, 42000 Saint-Étienne, France",4.6,949,http://www.chezlesfondus.com/,45.4371108,4.3872379,"bar, establishment, food, point_of_interest, restaurant",False
La Java Bleue Saint Etienne,"2 Cr Fauriel, 42100 Saint-Étienne, France",4.5,1386,http://www.restaurant-lajavableue.fr/,45.43154579999999,4.394892899999999,"establishment, food, point_of_interest, restaurant",False
Le Dolce Rosa | Restaurant | Brunch | Dessert | Saint-Étienne,"5 Rue Dormoy, 42000 Saint-Étienne, France",4.7,343,http://www.ledolcerosa.fr/,45.4422453,4.3849246,"establishment, food, point_of_interest, restaurant",False
Le Barboton,"5 Rue François Albert, 42000 Saint-Étienne, France",4.5,427,https://www.facebook.com/lebarboton/?locale=fr_FR,45.4467224,4.398119800000001,"establishment, food, point_of_interest, restaurant",False
la loco,"29 Av. Denfert Rochereau, 42000 Saint-Étienne, France",4.4,535,http://www.restaurant-la-loco.com/,45.4422466,4.398582,"establishment, food, point_of_interest, restaurant",False
Le Canopy restaurant,"27 Rue Léon Nautin, 42000 Saint-Étienne, France",4.3,498,http://canopy-saint-etienne.fr/,45.4350224,4.3911356,"establishment, food, point_of_interest, restaurant",False
El Inca,"21 Rue Louis Braille, 42000 Saint-Étienne, France",4.9,268,https://el-inca.fr/,45.4401638,4.3887543,"establishment, food, point_of_interest, restaurant",False
Café de la Grande Poste,"10 Av. de la Libération, 42000 Saint-Étienne, France",4.9,130,https://grandeposte.fr/,45.4370982,4.392053499999999,"establishment, food, point_of_interest, restaurant",False
La Table des Matrus,"26 Rue du Grand-Gonnet, 42000 Saint-Étienne, France",4.5,274,https://www.la-table-des-matrus.dousto.com/,45.4430308,4.383176,"establishment, food, point_of_interest, restaurant",False
L'hédoniste,"5 Pl. Grenette, 42000 Saint-Étienne, France",4.8,279,https://www.restaurant-lhedoniste.fr/,45.4358219,4.3868162,"establishment, food, point_of_interest, restaurant",False
L’Aile ou la Cuisse | Restaurant Place Jean Jaurès St-Etienne,"15 Pl. Jean Jaurès, 42000 Saint-Étienne, France",4.7,594,,45.4419106,4.3855905,"establishment, food, point_of_interest, restaurant",True
Corne d'Aurochs,"18 Rue Michel Servet, 42000 Saint-Étienne, France",4.8,461,http://cornedaurochs.eatbu.com/,45.440343,4.390345,"establishment, food, point_of_interest, restaurant",False
Les Perles d'Ivoire,"26 Rue Brossard, 42000 Saint-Étienne, France",5.0,34,https://lesperlesdivoire.fr/,45.4391603,4.3896923,"establishment, food, point_of_interest, restaurant",False
Au Bureau - Pub et Brasserie,"5 Esp. de France, 42000 Saint-Étienne, France",4.6,2694,https://www.aubureau.fr/restaurant-brasserie/au-bureau-saint-etienne?utm_source=google&utm_medium=organic&utm_campaign=mybusiness-website,45.44233490000001,4.400026,"bar, establishment, food, point_of_interest, restaurant",False
L'Escargot d'Or,"5 Cr Victor Hugo, 42000 Saint-Étienne, France",4.3,1681,https://lescargotdor.fr/,45.433999,4.388065399999999,"bar, establishment, food, point_of_interest, restaurant",False
Brasserie Geoffroy Guichard,"Dans le stade Geoffroy Guichard, 14 Rue Paul et Pierre Guichard, 42000 Saint-Étienne, France",4.6,1123,https://bgg.rest/,45.4600869,4.389183,"establishment, food, point_of_interest, restaurant",False
Restaurant Le Saint Gabriel,"334 Av. de la République, 83000 Toulon, France",4.6,1028,https://www.restaurantsaintgabriel.fr/,43.11984349999999,5.932671399999999,"establishment, food, point_of_interest, restaurant",False
Le Rock Toulon,"465 Littoral Frédéric Mistral, 83000 Toulon, France",4.7,1949,https://www.restaurant-lerock.fr/,43.1083617,5.9404382,"establishment, food, point_of_interest, restaurant",False
L'Équerre Restaurant Toulon,"Pl. de l'Equerre, 83000 Toulon, France",4.6,559,https://www.leautel-toulon.com/fr/hotel-4-etoiles-toulon,43.1223597,5.9294753,"establishment, food, point_of_interest, restaurant",False
Le Bistrok Toulon,"19 Rue Picot, 83000 Toulon, France",4.7,621,http://www.lebistrok.com/,43.12543369999999,5.932430600000001,"establishment, food, point_of_interest, restaurant",False
Les Tables de la Fontaine,"Pl. Gustave Lambert, 83000 Toulon, France",4.7,674,https://www.lestablesdelafontainetoulon.fr/,43.1215122,5.9318129,"establishment, food, point_of_interest, restaurant",False
Le Pastel - Restaurant Toulon,"20, rue Victor Micholet, Sq. Léon Vérane, 83000 Toulon, France",4.9,446,https://www.restaurantlepastel.fr/,43.1213348,5.9304406,"establishment, food, point_of_interest, restaurant",False
PETIT SUD,"Littoral Frédéric Mistral, Anse, Plages du Mourillon, 83000 Toulon, France",4.4,1912,https://petitsud.fr/,43.1068527,5.943152,"establishment, food, point_of_interest, restaurant",False
Sappia,"3 Bd Eugène Pelletan, 83000 Toulon, France",4.9,267,https://www.sappia-restaurant.fr/,43.1118095,5.9356253,"establishment, food, point_of_interest, restaurant",False
Brasserie La Tortue Port de Toulon,"71 Quai de la Sinse, 83000 Toulon, France",4.6,605,https://brasserielatortue.com/,43.1187962,5.9343268,"bar, establishment, food, point_of_interest, restaurant",False
Casa Mia,"45 Quai Cronstadt, 83000 Toulon, France",4.8,475,,43.121037,5.930217,"establishment, food, point_of_interest, restaurant",True
Terre Et Mer,"128 Av. de la République, 83000 Toulon, France",4.4,1356,https://m.facebook.com/terreetmer83/,43.1209693,5.930445199999999,"establishment, food, point_of_interest, restaurant",False
Dakota,"37 Rue Castillon, 83000 Toulon, France",4.8,1723,https://www.dakota-mourillon.fr/,43.1103136,5.9401077,"bar, establishment, food, night_club, point_of_interest, restaurant",False
Canova,"19 Rue Richard Andrieu, 83000 Toulon, France",4.9,938,https://www.instagram.com/canova_toulon/,43.1227531,5.9321918,"establishment, food, point_of_interest, restaurant",False
Côté terrasses toulon,"13 Rue Richard Andrieu, 83000 Toulon, France",4.8,226,https://www.instagram.com/restaurant_cote_terrasses/,43.1229027,5.932292299999999,"establishment, food, point_of_interest, restaurant",False
Hôi An,"2 Rue Corneille, 83000 Toulon, France",4.8,529,https://hoian.eatbu.com/?lang=fr,43.124309,5.9328445,"establishment, food, point_of_interest, restaurant",False
Saucé,"5 Rue Larmodieu, 83000 Toulon, France",4.6,433,http://www.restosauce.fr/,43.1239063,5.9311366,"establishment, food, point_of_interest, restaurant",False
AOC 41,"41 Rue Pascal, 83000 Toulon, France",4.9,609,https://www.aoc41-restaurant.fr/,43.1124372,5.9401215,"establishment, food, point_of_interest, restaurant",False
Chez le palestinien restaurant,"223 Rue Jean Jaurès, 83000 Toulon, France",4.9,109,,43.1244701,5.9290889,"establishment, food, point_of_interest, restaurant",True
Racines - Cuisine de Producteurs,"9 Rue Corneille, 83000 Toulon, France",4.8,304,https://www.racines-restaurant-toulon.com/,43.124082,5.9331473,"establishment, food, point_of_interest, restaurant",False
Restaurant Ma'a Tahiti,"41 Rue du Mûrier, 83000 Toulon, France",4.7,1361,https://www.maatahiti.fr/,43.119663,5.934589,"establishment, food, point_of_interest, restaurant",False
Restaurant L'Ardoise,"2 Rue de Miribel, 38000 Grenoble, France",4.6,1809,http://www.lardoisegrenoble.fr/,45.190434,5.7254032,"bar, establishment, food, point_of_interest, restaurant",False
Restaurant La Belle idée,"7 Cr Jean Jaurès, 38000 Grenoble, France",4.6,1856,http://www.labelleidee-grenoble.fr/,45.19077859999999,5.7202701,"establishment, food, point_of_interest, restaurant",False
"L'Ardoise ""GOURMANDE"" (Quartier rue de Strasbourg)!!!","20 Rue de Strasbourg, 38000 Grenoble, France",4.8,312,http://www.lardoise-gourmande.fr/,45.1866525,5.731325500000001,"establishment, food, point_of_interest, restaurant",False
Restaurant Tchoutchoura,"16 Rue Gabriel Péri, 38000 Grenoble, France",4.9,1041,https://www.restaurant-tchoutchoura.fr/,45.188623,5.718046200000001,"establishment, food, point_of_interest, restaurant",False
Restaurant Le Seven – Cuisine maison & Ambiance bohème | Grenoble,"2 Bd de l'Esplanade, 38000 Grenoble, France",4.6,924,https://leseven-grenoble.fr/,45.1944539,5.718824,"establishment, food, point_of_interest, restaurant",False
Le 17.45 Grenoble - Restaurant de Planches à composer,"14 bis Av. Alsace Lorraine, 38000 Grenoble, France",4.8,1497,https://www.le17-45.fr/reservations?resto=grenoble,45.1893888,5.721180299999999,"bar, establishment, food, point_of_interest, restaurant",False
Restaurant Le Gratin Dauphinois,"52 Av. Félix Viallet, 38000 Grenoble, France",4.6,966,http://www.jaimelegratindauphinois.com/,45.19058099999999,5.716470999999999,"establishment, food, point_of_interest, restaurant",False
Le Bistrot des 3 Amis,"3 Pl. de Gordes, 38000 Grenoble, France",4.7,233,,45.192302,5.727788299999999,"establishment, food, point_of_interest, restaurant",True
Et Si,"16 Rue de Strasbourg, 38000 Grenoble, France",4.7,559,https://etsigrenoble.com/,45.1868028,5.7310395,"establishment, food, point_of_interest, restaurant",False
Restaurant L'Inattendu,"52 Av. Félix Viallet, 38000 Grenoble, France",4.7,755,http://restaurant-linattendu.fr/,45.1906433,5.7166804,"establishment, food, point_of_interest, restaurant",False
Restaurant La Table des Bro's Grenoble,"15 bis Rue Lakanal, 38000 Grenoble, France",4.3,955,https://latabledesbros.fr/,45.18583520000001,5.722873,"bar, establishment, food, point_of_interest, restaurant",False
Le DauphinoiX,"11 Rue Bayard, 38000 Grenoble, France",4.7,635,https://www.facebook.com/Le-Dauphinoix-Grenoble-108903497632352,45.1914747,5.732339,"establishment, food, point_of_interest, restaurant",False
La Ferme à Dédé Grenoble - Centre,"24 Rue Barnave, 38000 Grenoble, France",4.3,3624,http://www.restaurantlafermeadede.com/,45.1927031,5.7299371,"establishment, food, point_of_interest, restaurant",False
Restaurant Une Semaine sur Deux,"4 Pl. Championnet, 38000 Grenoble, France",4.5,1306,https://www.facebook.com/1sur2grenoble,45.1856705,5.7224217,"establishment, food, point_of_interest, restaurant",False
LULU,"11 Rue de la Poste, 38000 Grenoble, France",4.7,136,https://www.lulugrenoble.fr/?utm_source=google&utm_medium=wix_google_business_profile&utm_campaign=18122664879013487271,45.1893973,5.727626,"establishment, food, point_of_interest, restaurant",False
Restaurant L'Envie des Mets,"7 Rue Genissieu, 38000 Grenoble, France",4.7,323,https://www.facebook.com/Lenvie-des-mets-1566980680180106/?ref=br_rs,45.1865028,5.722368100000001,"establishment, food, point_of_interest, restaurant",False
Restaurant L'Amélyss,"3 Bd Gambetta, 38000 Grenoble, France",4.8,431,http://sites.google.com/view/restaurant-l-amelyss,45.1915619,5.721220499999999,"establishment, food, point_of_interest, restaurant",False
Restaurant L'Inspiration,"1 Rue Saint-Joseph, 38000 Grenoble, France",4.9,501,http://linspiration-grenoble.fr/,45.1872207,5.7286797,"establishment, food, point_of_interest, restaurant",False
Restaurant La Table de Gordes,"4 Pl. de Gordes, 38000 Grenoble, France",4.6,572,http://www.latabledegordes.fr/,45.19207,5.727700599999999,"bar, establishment, food, point_of_interest, restaurant",False
Restaurant Le Côte,"15 Rue Paul Janet, 38100 Grenoble, France",4.6,955,https://www.restaurant-le-cote-grenoble.fr/,45.1812907,5.7297024,"establishment, food, point_of_interest, restaurant",False
Mamie Fada,"18 Quai des Carmes, 49100 Angers, France",4.7,9545,https://www.mamiefada.com/?utm_source=google&utm_medium=organic&utm_campaign=mybusiness-website,47.4726732,-0.5609695,"bar, establishment, food, point_of_interest, restaurant",False
Les Fils à Maman Angers,"Pl. du Pilori, 49100 Angers, France",4.5,4404,https://www.lesfilsamaman.com/restaurants/angers/?utm_source=google&utm_medium=organic&utm_campaign=mybusiness-website,47.4733116,-0.549882,"bar, establishment, food, meal_delivery, meal_takeaway, point_of_interest, restaurant",False
La Réserve Angers,"Bd Henri Arnauld 5ème étage - Par l'ascenseur, 49100 Angers, France",4.5,3359,http://www.lareserveangers.fr/,47.4724819,-0.5643809,"bar, establishment, food, point_of_interest, restaurant",False
Bistrot des Ducs,"6 Rue des 2 Haies, 49100 Angers, France",4.8,2876,http://www.bistrotdesducs.fr/,47.47172519999999,-0.5530299000000001,"establishment, food, point_of_interest, restaurant",False
La Cour - Angers,"23 Rue de la Roë, 49100 Angers, France",4.6,2883,http://www.lacour-angers.com/,47.472899,-0.5532747,"bakery, bar, cafe, establishment, food, point_of_interest, restaurant, store",False
Les Petits Prés,"6 Pl. du Ralliement, 49100 Angers, France",4.4,2052,https://www.lespetitspres.fr/,47.4710625,-0.5525137,"establishment, food, point_of_interest, restaurant",False
Belle Rive,"32 Prom. de Reculée, 49000 Angers, France",4.8,1532,https://www.restaurant-bellerive.com/,47.48719999999999,-0.5501157,"establishment, food, point_of_interest, restaurant",False
La Maison,"20 Quai des Carmes, 49100 Angers, France",4.6,1229,https://lamaisonangers.com/,47.4725568,-0.5611682,"establishment, food, point_of_interest, restaurant",False
Maison Paganelli Angers,"5 Rue des 2 Haies, 49100 Angers, France",4.8,725,https://maisonpaganelli.com/,47.47190459999999,-0.5528651,"establishment, food, point_of_interest, restaurant",False
La Brigade - Restaurant Angers,"5 Pl. Mondain Chanlouineau, 49100 Angers, France",4.7,224,https://www.la-brigade.fr/,47.4713758,-0.5540587,"bar, establishment, food, meal_delivery, meal_takeaway, point_of_interest, restaurant",False
Le Pas Sage,"44 Rue Saint-Laud 00, 49100 Angers, France",4.7,593,https://lepas-sagebar.fr/,47.4718495,-0.5536035,"bar, establishment, food, point_of_interest, restaurant",False
Le Mail - Restaurant Angers,"2 Av. du 11 Novembre 1918, 49100 Angers, France",4.5,1928,https://restaurant-lemail.fr/,47.470766,-0.545153,"bar, cafe, establishment, food, point_of_interest, restaurant, store",False
Wonderwoods by Ephemera - Angers,"Ecoparc du buisson, 49073 Beaucouzé, France",4.8,10836,https://www.ephemera-group.com/wonderwoods-angers?utm_source=google&utm_medium=organic&utm_campaign=mybusiness-website,47.4853625,-0.6246986,"bar, establishment, food, point_of_interest, restaurant",False
Chez Pont-Pont,"13 Prom. du Bout du Monde, 49100 Angers, France",4.5,5029,https://chezpontpont.com/,47.4701729,-0.5580428,"establishment, food, point_of_interest, restaurant",False
La table de Clément Paillard,"5 Rue Saint-Christophe, 49100 Angers, France",5.0,147,https://clementpaillard.fr/,47.4710638,-0.5560215,"establishment, food, point_of_interest, restaurant",False
DAZUMA,"44 Rue Beaurepaire, 49100 Angers, France",4.8,1152,http://dazuma.fr/,47.4747412,-0.5606074999999999,"establishment, food, point_of_interest, restaurant",False
La Chouette,"Au Rez-de-Chaussée, 9 Pl. du Ralliement, 49100 Angers, France",4.1,958,https://lachouette-angers.com/,47.471227,-0.5510336,"establishment, food, point_of_interest, restaurant",False
Brasserie de la Gare,"Pl. de la Gare, 49100 Angers, France",4.6,1613,http://brasseriedelagare.barmade.fr/-t1,47.4655067,-0.5565835,"establishment, food, point_of_interest, restaurant",False
Restaurant DADDY - Bistronomie & Pâtes Flambées – Angers,"22 Rue de la Parcheminerie, 49100 Angers, France",4.7,546,https://www.daddyrestaurant.fr/,47.4736692,-0.5532133000000001,"establishment, food, point_of_interest, restaurant",False
GUEULETON ANGERS,"14 Rue de la Roë, 49100 Angers, France",4.7,1259,https://www.gueuleton.fr/gueuleton-angers/,47.4733171,-0.5539791,"bar, establishment, food, point_of_interest, restaurant",False
The Bird,"2 Rue Tedenat, 30000 Nîmes, France",4.8,981,https://www.facebook.com/thebirdnimes/?locale=fr_FR,43.8361326,4.3563323,"establishment, food, point_of_interest, restaurant",False
Le Dé-K-Lé Bistrot Gourmand,"40 Rue de la Madeleine, 30000 Nîmes, France",4.5,2105,,43.8372093,4.3570042,"establishment, food, point_of_interest, restaurant",True
La Table d'Assas,"Pl. d'Assas, 30900 Nîmes, France",4.7,303,https://www.tripadvisor.fr/Restaurant_Review-g187154-d26906298-Reviews-La_Table_D_assas-Nimes_Gard_Occitanie.html,43.8388655,4.3543907,"establishment, food, point_of_interest, restaurant",False
Restaurant Vincent Croizard,"17 Rue des Chassaintes, 30900 Nîmes, France",4.8,803,http://www.restaurantcroizard.com/,43.8371542,4.353054699999999,"establishment, food, point_of_interest, restaurant",False
Le Questel,"4 Pl. Questel, 30900 Nîmes, France",4.7,893,http://www.lequestel.fr/,43.8373317,4.3552906,"bar, cafe, establishment, food, point_of_interest, restaurant",False
L’Accent Bistrot chic,"2 Bd Gambetta, 30000 Nîmes, France",5.0,424,http://www.restaurant-laccent.com/,43.8399949,4.3569184,"establishment, food, point_of_interest, restaurant",False
La Table,"5 Rue de Sauve, 30900 Nîmes, France",4.7,422,https://m.facebook.com/LaTableNimes/?ref=bookmarks,43.8377112,4.349275899999999,"establishment, food, point_of_interest, restaurant",False
Le Bistrot de Tatie Agnès,"16 Rue de la Maison Carrée, 30000 Nîmes, France",4.7,928,,43.837755,4.3565431,"establishment, food, point_of_interest, restaurant",True
La Locanda Comptoir italien,"12 Rue de la Maison Carrée, 30000 Nîmes, France",4.6,1861,http://www.lalocandafamily.com/,43.8376302,4.3565569,"establishment, food, meal_takeaway, point_of_interest, restaurant",False
Restaurant Skab,"7 Rue de la République, 30000 Nîmes, France",4.7,721,http://www.restaurant-skab.fr/,43.8330421,4.3595499,"establishment, food, point_of_interest, restaurant",False
L'ATYPIQUE,"27 Rue de la Madeleine, 30000 Nîmes, France",4.6,705,https://www.latypiquerestaurant.fr/,43.8373166,4.3575366,"establishment, food, point_of_interest, restaurant",False
Restaurant Mésopota'Nîmes,"87 Bis Rue de la République, 30900 Nîmes, France",4.9,687,https://mesopotanimes.com/,43.8272036,4.3540765,"establishment, food, point_of_interest, restaurant",False
Pinocchio,"29 Rue de la Madeleine, 30000 Nîmes, France",4.5,2032,https://pinocchio-restaurant.fr/,43.8372954,4.3573415,"establishment, food, meal_takeaway, point_of_interest, restaurant",False
GAMEL Restaurant,"8 Rue Xavier Sigalon, 30000 Nîmes, France",4.9,268,http://gamelrestaurant.fr/,43.8391045,4.3615128,"establishment, food, point_of_interest, restaurant",False
ROUGE Nîmes,"6 Rue Fresque, 30000 Nîmes, France",4.5,394,https://www.margaret-hotelchouleur.com/restaurants/restaurant-nimes/,43.836954,4.358032,"bar, establishment, food, point_of_interest, restaurant",False
Barancini | Restaurant Nimes | Restaurant Italien Nimes,"2 Pl. Bellecroix, 30000 Nîmes, France",4.8,180,https://www.barancini-restaurant-italien-nimes.fr/,43.8385293,4.3614107,"establishment, food, point_of_interest, restaurant",False
MENNA - Restaurant Nîmes,"7 Rue de Bernis, 30000 Nîmes, France",4.8,360,https://www.restaurant-menna.fr/,43.8369075,4.358279599999999,"establishment, food, point_of_interest, restaurant",False
HÈITA,"27 Rue de l'Étoile, 30000 Nîmes, France",4.9,399,https://www.heita.fr/,43.83620639999999,4.358469299999999,"establishment, food, point_of_interest, restaurant",False
L'Esclafidou 'La Table du Cap',"7 Rue Xavier Sigalon, 30000 Nîmes, France",4.6,557,https://www.lesclafidou-restaurant-nimes.fr/,43.83916670000001,4.3613889,"establishment, food, point_of_interest, restaurant",False
IL RISTORANTE - le restaurant italien de Nîmes,"155 Rue Paul Laurent, 30900 Nîmes, France",4.3,5668,https://www.ilristorante.fr/il-ristorante-le-restaurant-italien-de-nimes/?utm_source=google&utm_medium=organic&utm_campaign=mybusiness-website,43.80870669999999,4.3656348,"bar, establishment, food, grocery_or_supermarket, meal_takeaway, point_of_interest, restaurant, store",False
LA BASCULE,"7 Pl. Charles Hernu, 69100 Villeurbanne, France",4.9,643,https://www.restaurant-labascule.fr/,45.770967,4.8633679,"establishment, food, point_of_interest, restaurant",False
La Tamtamerie - Restaurant /Bar Villeurbanne,"18 Rue Poizat, 69100 Villeurbanne, France",4.9,476,,45.7582833,4.893167399999999,"bar, establishment, food, point_of_interest, restaurant",True
Le Bistro des Vivants,"6 Rue Jean-Claude Vivant, 69100 Villeurbanne, France",5.0,59,https://le-bistro-des-vivants-villeurbanne.eatbu.com/,45.7704713,4.8680127,"establishment, food, point_of_interest, restaurant",False
Cuisine En Ville - Restaurant Halal,"11 Rue Bellecombe, 69100 Villeurbanne, France",4.6,1673,http://www.cuisine-en-ville.fr/,45.7696942,4.863161,"establishment, food, point_of_interest, restaurant",False
La Pavane Villeurbanne,"79 Rue Louis Becker, 69100 Villeurbanne, France",4.7,314,https://linktr.ee/pavanevilleurbanne,45.7653963,4.872139799999999,"bar, establishment, food, point_of_interest, restaurant",False
"MOON RESTAURANT®, Villeurbanne/Lyon🌙","2 Av. Salvador Allende, 69100 Villeurbanne, France",4.9,637,http://moonrestaurantlyon.eatbu.com/,45.7760821,4.8624895,"establishment, food, point_of_interest, restaurant",False
Bistrot Le Filanthrope,"16 Av. Auguste Blanqui, 69100 Villeurbanne, France",4.5,987,http://lefilanthrope.fr/,45.7634578,4.8843916,"bar, establishment, food, point_of_interest, restaurant",False
LE JARDIN D'ALINE,"4 Rue Jean-Baptiste Clément, 69100 Villeurbanne, France",4.6,736,,45.7823864,4.879081999999999,"establishment, food, point_of_interest, restaurant",True
H,"80 Rue Magenta, 69100 Villeurbanne, France",4.7,390,https://www.instagram.com/h_restaurant.lounge?igsh=MXF6OHhzN3RzZnhwbA==,45.7647387,4.8714613,"bar, establishment, food, night_club, point_of_interest, restaurant",False
Le Kashmir,"150 Rue du 4 Août 1789, 69100 Villeurbanne, France",4.8,7349,http://restaurant-lekashmir.fr/,45.7642715,4.8906357,"establishment, food, point_of_interest, restaurant",False
3Poivres Villeurbanne,"263 Cr Émile-Zola, 69100 Villeurbanne, France",4.7,5359,https://borneoapp.com/3PoivresVilleurbanne?s=gmb-sw,45.76788579999999,4.8893781,"establishment, food, point_of_interest, restaurant",False
Le Tourbillon de la Vigne - Restaurant,"28 Rue Michel Servet, 69100 Villeurbanne, France",5.0,142,https://www.letourbillondelavigne.fr/,45.7673833,4.8786968,"establishment, food, point_of_interest, restaurant",False
Uncle thaï,"132 Cr Émile-Zola, 69100 Villeurbanne, France",4.8,1067,https://jungle-thai-villeurbanne.fr/fr,45.7700201,4.875991300000001,"establishment, food, point_of_interest, restaurant",False
La Maison des Délices Villeurbanne - Brunch & Desserts,"29 Rue des Charmettes, 69100 Villeurbanne, France",4.7,356,https://lmddvilleurbanne.cloudwaitress.com/,45.7702247,4.86755,"establishment, food, point_of_interest, restaurant",False
Le Taille-Crayon,"21 Rue Flachet, 69100 Villeurbanne, France",4.4,1095,http://www.le-taille-crayon.fr/,45.7696182,4.889973299999999,"bar, establishment, food, point_of_interest, restaurant",False
MASTER POULET - Villeurbanne,"56 Cr Émile-Zola, 69100 Villeurbanne, France",4.9,326,https://restaurants.master-poulet.fr/fr/restaurant-poulet-grille/56-cremile-zola-villeurbanne/,45.770767,4.8678568,"establishment, food, point_of_interest, restaurant",False
Chez Marion,"66 Cr de la République, 69100 Villeurbanne, France",4.7,330,,45.7650116,4.8739187,"establishment, food, point_of_interest, restaurant",True
Le Bieristan,"14 Rue Paul Lafargue, 69100 Villeurbanne, France",4.6,2749,http://www.bieristan.fr/,45.767894,4.883538,"bar, cafe, establishment, food, point_of_interest, restaurant, store",False
DELIZIA TRATTORIA - VILLEURBANNE,"39 Rue de Fontanières, 69100 Villeurbanne, France",4.7,503,https://www.deliziatrattoria.com/,45.7753564,4.883609499999999,"establishment, food, meal_delivery, meal_takeaway, point_of_interest, restaurant",False
CHILLS,"121 Cr Tolstoï, 69100 Villeurbanne, France",4.8,119,,45.7613846,4.883537,"establishment, food, point_of_interest, restaurant",True
L'instantané,"2 Rue Abbé Girard, 63000 Clermont-Ferrand, France",4.8,1159,https://linstantane-restaurant.fr/,45.77742440000001,3.0869737,"establishment, food, point_of_interest, restaurant",False
Le Bistrot d'à Côté,"16 Rue des Minimes, 63000 Clermont-Ferrand, France",4.7,1597,https://restaurant-bistrotdacote.fr/,45.777893,3.0810754,"establishment, food, point_of_interest, restaurant",False
Lard De Vivre,"15 Rue des Chaussetiers, 63000 Clermont-Ferrand, France",4.7,903,http://www.larddevivre.fr/?utm_source=gmb,45.7782229,3.0839135,"establishment, food, point_of_interest, restaurant",False
La Mère Moustache,"17 Rue de l'Eminee, 63000 Clermont-Ferrand, France",4.6,1415,https://www.instagram.com/lameremoustache_clfd,45.7602554,3.1415213,"establishment, food, point_of_interest, restaurant",False
Restaurant Fille à papa,"28 Rue des Petits Gras, 63000 Clermont-Ferrand, France",4.7,686,https://fille-a-papa.dousto.com/,45.777998,3.083616,"establishment, food, point_of_interest, restaurant",False
Lard Et La Manière,"6 Rue des Minimes, 63000 Clermont-Ferrand, France",4.6,1275,http://www.lardetlamaniere.fr/?utm_source=gmb,45.7783008,3.0810139,"establishment, food, point_of_interest, restaurant",False
Le Comptoir,"42 Rue de l'Ange, 63000 Clermont-Ferrand, France",4.5,1421,http://www.lecomptoir-clermont.fr/?utm_source=gmb,45.7798103,3.0808496,"establishment, food, point_of_interest, restaurant",False
la Table du Puy,"8 Rue Abbé Girard, 63000 Clermont-Ferrand, France",4.9,171,https://www.latabledupuy.fr/,45.7771373,3.0869641,"establishment, food, point_of_interest, restaurant",False
Bouillon Clermont,"8 Rue des Minimes, 63000 Clermont-Ferrand, France",4.5,1706,https://www.bouillonclermont.fr/,45.7782138,3.0809919,"establishment, food, point_of_interest, restaurant",False
Le Kitchen,"29 Rue des Chaussetiers, 63000 Clermont-Ferrand, France",4.7,637,http://lekitchen63.fr/,45.778346,3.083136,"establishment, food, point_of_interest, restaurant",False
Restaurant Anatole Clermont-ferrand,"3 Rue Kepler, 63100 Clermont-Ferrand, France",4.7,486,https://www.restaurant-anatole.fr/,45.7799035,3.1197356,"establishment, food, point_of_interest, restaurant",False
Comme A La Maison SAS,"77 Rue du Ressort, 63100 Clermont-Ferrand, France",4.7,485,http://www.facebook.com/commealamaison63?utm_source=gmb,45.7889049,3.1153969,"establishment, food, point_of_interest, restaurant",False
L'En-But,"Stade Marcel-Michelin, 107 Av. de la République, 63100 Clermont-Ferrand, France",4.8,696,https://lenbut.com/,45.7886841,3.1056691,"establishment, food, point_of_interest, restaurant",False
L'Odevie restaurant,"1 Rue Eugène Gilbert, 63000 Clermont-Ferrand, France",4.4,1627,http://www.restaurantodevie.com/,45.7735785,3.0812058,"establishment, food, point_of_interest, restaurant",False
La Riviere Des Parfums,"70 Rue Henri Barbusse, 63000 Clermont-Ferrand, France",4.7,925,https://la-riviere-des-parfums.my-shoop.store/?utm_source=gmb,45.7824055,3.0925805,"establishment, food, point_of_interest, restaurant",False
Le bruit du bouchon,"26 Rue de la Boucherie, 63000 Clermont-Ferrand, France",4.8,381,https://www.facebook.com/latelierduvinclermontfd/,45.77962489999999,3.08348,"establishment, food, point_of_interest, restaurant",False
Le 17.45 Clermont-Ferrand - Planches à Composer,"6 Rue Michel Rocard, 63000 Clermont-Ferrand, France",4.8,371,https://www.le17-45.fr/,45.772199,3.085696,"establishment, food, point_of_interest, restaurant",False
Restaurant Le Devant,"32 Rue des Gras, 63000 Clermont-Ferrand, France",4.4,1049,https://www.restaurant-ledevant.fr/,45.7788713,3.0834411,"establishment, food, point_of_interest, restaurant",False
Les Petits Crus Clermont-Ferrand,"14 bis Pl. Gilbert Gaillard, 63000 Clermont-Ferrand, France",4.7,414,https://www.lespetitscrus.com/,45.7804983,3.0815082,"bar, establishment, food, point_of_interest, restaurant",False
Il Visconti,"9 Rue du Terrail, 63000 Clermont-Ferrand, France",4.6,1147,https://www.ilvisconti.com/,45.7785248,3.0871794,"establishment, food, point_of_interest, restaurant",False
Le Ramus - Restaurant Aix-En-Provence,"12 Pl. Ramus, 13100 Aix-en-Provence, France",4.7,1749,https://www.restaurant-le-ramus-aix.fr/,43.528397,5.4471,"establishment, food, point_of_interest, restaurant",False
Les Fils à Maman Aix en Provence,"42 Rue de la Verrerie, 13100 Aix-en-Provence, France",4.4,6213,https://www.lesfilsamaman.com/restaurants/aix-en-provence/?utm_source=google&utm_medium=organic&utm_campaign=mybusiness-website,43.528422,5.4470953,"bar, establishment, food, meal_delivery, meal_takeaway, point_of_interest, restaurant",False
Le bouche à Oreille,"1 Rue Aumône Vieille, 13100 Aix-en-Provence, France",4.7,968,https://le-bouche-a-oreille-aix-en-provence.com/,43.5282997,5.4467273,"establishment, food, point_of_interest, restaurant",False
La Bouchée,"5 Rue d'Entrecasteaux, 13100 Aix-en-Provence, France",4.7,929,https://labouchee-aix.com/,43.5285017,5.4450214,"establishment, food, point_of_interest, restaurant",False
AREV,"5 Pl. Ramus, 13100 Aix-en-Provence, France",4.8,3480,,43.5281993,5.446934199999999,"establishment, food, point_of_interest, restaurant",True
Il Etait une Fois,"4 Rue Lieutaud, 13100 Aix-en-Provence, France",4.8,956,http://iletaitune-fois.fr/,43.528854,5.44548,"establishment, food, point_of_interest, restaurant",False
"O'père, Cuisine d'Amour Restaurant","1840 Rte de Berre, 13090 Aix-en-Provence, France",4.8,1750,http://www.opere.fr/,43.5352907,5.3945687,"establishment, food, point_of_interest, restaurant",False
Restaurant l'envie,"16 Rue Duperrier, 13100 Aix-en-Provence, France",4.7,340,,43.52939790000001,5.4430964,"establishment, food, point_of_interest, restaurant",True
Les Galinas - La Table Provençale,"10 Rue Constantin, 13100 Aix-en-Provence, France",4.8,266,https://lesgalinas.eatbu.com/,43.5305883,5.4497963,"bar, establishment, food, point_of_interest, restaurant",False
Faubourg 46 - Restaurant Aix-En-Provence,"46 Cr Sextius, 13100 Aix-en-Provence, France",4.7,1929,http://www.faubourg46.fr/,43.5293841,5.4437327,"bar, cafe, establishment, food, point_of_interest, restaurant",False
La Flamme d’Aix,"9 Rue Aumône Vieille, 13100 Aix-en-Provence, France",4.8,639,https://laflamme-aix.fr/,43.528169,5.4464345,"establishment, food, point_of_interest, restaurant",False
Yves Restaurant,"23 Rue Lisse des Cordeliers, 13100 Aix-en-Provence, France",4.9,458,http://www.yvesrestaurantaix.com/,43.5282071,5.4440602,"establishment, food, point_of_interest, restaurant",False
Coucou,"4 Rue des Cordeliers, 13100 Aix-en-Provence, France",4.6,656,https://coucou-aix.fr/,43.5296357,5.446985499999999,"establishment, food, point_of_interest, restaurant",False
L'incontournable,"Place des 3 Ormeaux, 5 Rue des Epinaux, 13100 Aix-en-Provence, France",4.6,1296,https://m.facebook.com/LIncontournable-412407662129682/,43.5300192,5.4500841,"establishment, food, point_of_interest, restaurant",False
Mammò - Aix-en-Provence,"15 Rue Constantin, 13100 Aix-en-Provence, France",4.7,613,https://www.facebook.com/profile.php?id=61576189863165,43.5305313,5.4503238,"establishment, food, point_of_interest, restaurant",False
Tita - Restaurant Aix en Provence,"11 Rue des Bernardines, 13100 Aix-en-Provence, France",4.8,2065,https://www.titaaix.fr/,43.527559,5.445473,"establishment, food, meal_takeaway, point_of_interest, restaurant",False
Étude,"24 rue de l Rue Aumône Vieille, 13100 Aix-en-Provence, France",4.9,708,https://www.etude-aix.fr/,43.528383,5.446624,"establishment, food, point_of_interest, restaurant",False
de l'une à l'autre,"12 Rue du Cancel, 13100 Aix-en-Provence, France",4.7,449,https://www.facebook.com/delunealautre.aix/,43.53041400000001,5.445698,"establishment, food, point_of_interest, restaurant",False
Villa Gallici - Relais & Châteaux,"18 Av. de la Violette, 13100 Aix-en-Provence, France",4.8,491,https://www.villagallici.com/,43.5361009,5.4487142,"establishment, food, lodging, point_of_interest, restaurant, spa",False
Le Poivre d'Ane,"40 Pl. Forum des Cardeurs, 13100 Aix-en-Provence, France",4.7,464,https://m.facebook.com/Le-Poivre-dAne-185300011557852,43.5301741,5.446025199999999,"establishment, food, point_of_interest, restaurant",False
Jardin d'hiver - Restaurant Brest,"7 Rue Amiral Linois, 29200 Brest, France",4.7,1257,https://jardin-hiver.fr/,48.3858671,-4.4904163,"establishment, food, point_of_interest, restaurant",False
La Tentation des Mets,"2 Rue de l'Observatoire, 29200 Brest, France",4.9,201,,48.3924506,-4.492119199999999,"establishment, food, point_of_interest, restaurant",True
Memes Tra Brest,"26 Quai de la Douane, 29200 Brest, France",4.8,896,https://www.memestra.bzh/,48.3828723,-4.484908,"establishment, food, point_of_interest, restaurant",False
La Brigade - Restaurant Brest,"14 Pl. de la Liberté, 29200 Brest, France",4.8,416,https://www.la-brigade.fr/,48.39086169999999,-4.4862018,"bar, establishment, food, meal_delivery, meal_takeaway, point_of_interest, restaurant",False
Le garde manger,"32 Rue Jean Macé, 29200 Brest, France",4.6,496,http://www.le-garde-manger-brest.fr/,48.3869169,-4.4886485,"establishment, food, point_of_interest, restaurant",False
Restaurant Le Repaire ⋅ Brest,"25 Rue Emile Zola, 29200 Brest, France",4.7,350,https://lerepaire-brest.fr/,48.3855599,-4.4895366,"bar, establishment, food, liquor_store, point_of_interest, restaurant, store",False
Le Tri Menn,"13 Rue d'Aboville, 29200 Brest, France",4.9,255,https://le-tri-menn.eatbu.com/?lang=fr,48.39186960000001,-4.4789565,"bar, establishment, food, point_of_interest, restaurant",False
La Maison de l'Océan,"2 Quai de la Douane, 29200 Brest, France",4.4,2875,http://www.restaurant-fruit-mer-brest.com/,48.3815488,-4.4881334,"establishment, food, point_of_interest, restaurant",False
L'Embrun,"48 Rue de Lyon, 29200 Brest, France",4.8,822,https://www.lembrunrestaurant.fr/,48.3900449,-4.4913565,"establishment, food, point_of_interest, restaurant",False
Brasserie Rosalie - Brasserie Brest,"8 Rue Algésiras, 29200 Brest, France",4.8,137,,48.389824,-4.488809,"bar, establishment, food, point_of_interest, restaurant",True
Restaurant Les 3C Brest (copains comme cochon),"33 Av. Georges Clemenceau, 29200 Brest, France",4.7,251,,48.3913528,-4.4877164,"bar, cafe, establishment, food, point_of_interest, restaurant, store",True
La Table de L'Amirauté - Restaurant Brest,"41 Rue Branda, 29200 Brest, France",4.7,40,https://www.restaurant-latabledelamiraute.com/,48.3923269,-4.4808559,"establishment, food, point_of_interest, restaurant",False
L'Atelier Gourmand,"33 Rue Navarin, 29200 Brest, France",4.7,513,http://lateliergourmand.eatbu.com/,48.397087,-4.479146099999999,"establishment, food, point_of_interest, restaurant",False
Peck & co.,"23 Rue Fautras, 29200 Brest, France",4.8,179,http://peckandco.fr/,48.3905412,-4.4910029,"establishment, food, point_of_interest, restaurant",False
Le Crabe Marteau,"8 Quai de la Douane, 29200 Brest, France",4.5,2047,http://crabemarteau.fr/,48.3818588,-4.4875159,"establishment, food, point_of_interest, restaurant",False
Les Ptites Recettes,"40 Rue du Château, 29200 Brest, France",4.5,1361,https://lesptitesrecettes-brest.fr/,48.3870678,-4.4864723,"bar, establishment, food, point_of_interest, restaurant",False
Le Bistrot de P'tit Louis,"2 bis Rue de Kerros, 29200 Brest, France",4.6,537,http://www.lebistrotdeptitlouis.com/,48.388092,-4.4825763,"establishment, food, point_of_interest, restaurant",False
SÌ RISTORANTE LIBERTE,"19 Pl. de la Liberté, 29200 Brest, France",4.6,1023,http://www.si-ristorante.fr/,48.3905307,-4.4852573,"establishment, food, point_of_interest, restaurant",False
Restaurant Chez Coco,"Port de commerce, 38 Quai de la Douane, 29200 Brest, France",4.6,396,https://www.facebook.com/coco.dorignac,48.3831257,-4.483777100000001,"establishment, food, point_of_interest, restaurant",False
Le Bœuf sur le Quai,"2 Rue Commandant Malbert, 29200 Brest, France",4.3,1947,http://boeufsurlequai.com/,48.38199729999999,-4.4898449,"establishment, food, point_of_interest, restaurant",False
Les Petits Ventres,"20 Rue de la Boucherie, 87000 Limoges, France",4.7,2256,http://www.les-petits-ventres.fr/,45.8286516,1.2578464,"establishment, food, point_of_interest, restaurant",False
La Table du Couvent,"15 Rue Neuve des Carmes, 87000 Limoges, France",4.5,1005,https://latableducouvent.com/,45.8294978,1.2503145,"establishment, food, point_of_interest, restaurant",False
Le Bouillon Limousin,"5 Rue du 71ème Mobiles, 87000 Limoges, France",4.8,797,https://le-bouillon-limousin.eatbu.com/,45.83047209999999,1.264614,"establishment, food, point_of_interest, restaurant",False
L'Aparté,"39 Bd Carnot, 87000 Limoges, France",4.7,494,https://www.laparte-limoges.fr/,45.8327857,1.2590789,"establishment, food, point_of_interest, restaurant",False
Chez Mimi,"4 Rdpt Margaine, 87000 Limoges, France",4.8,820,http://chez-mimi87.eatbu.com/,45.8366884,1.2535389,"establishment, food, point_of_interest, restaurant",False
Un jardin en ville,"50 Cr Gay Lussac, 87000 Limoges, France",4.8,316,,45.8354129,1.2609161,"bar, establishment, food, point_of_interest, restaurant",True
Le Bœuf à la Mode,"60 Rue François Chénieux, 87000 Limoges, France",4.7,869,http://leboeufalamode87.fr/,45.8376439,1.2566099,"establishment, food, point_of_interest, restaurant",False
Martin Comptoir,"13 Rue Lansecot, 87000 Limoges, France",4.8,414,http://www.martincomptoir.fr/,45.8291593,1.2573953,"establishment, food, point_of_interest, restaurant",False
LES ÉCHOPPES,"8 Rue Adrien Dubouché, 87000 Limoges, France",4.7,660,https://www.les-echoppes.com/,45.8306796,1.2564315,"bar, establishment, food, point_of_interest, restaurant",False
Le Pont Saint Etienne,"8 Pl. de Compostelle, 87000 Limoges, France",4.4,2362,http://www.lepontsaintetienne.fr/,45.8286111,1.2713889,"establishment, food, point_of_interest, restaurant",False
L'HARMONIE,"39 Rue des Combes, 87000 Limoges, France",4.9,170,https://www.lharmonie-restaurant-limoges.fr/,45.8324182,1.2566649,"bakery, bar, establishment, food, liquor_store, point_of_interest, restaurant, store",False
Les Tables du Bistrot,"7 Rue du Grand Theil, 87280 Limoges, France",4.3,4617,http://www.lestablesdubistrot.fr/,45.8712467,1.2779053,"establishment, food, point_of_interest, restaurant",False
LE BISTROT GOURMAND,"5 Pl. Winston Churchill, 87000 Limoges, France",4.4,1822,http://www.bistrotgourmand.fr/,45.8314212,1.2542487,"establishment, food, point_of_interest, restaurant",False
Le Cheverny,"57 Av. Baudin, 87000 Limoges, France",4.6,1195,http://lecheverny.fr/,45.8242455,1.2575547,"establishment, food, point_of_interest, restaurant",False
ANTIQ restaurant,"43 Av. de la Révolution, 87000 Limoges, France",4.7,236,https://www.antiq-limoges.fr/,45.8237603,1.2599201,"establishment, food, point_of_interest, restaurant",False
Le Geyracois,"15 Boulevard Georges Périn, 87000 Limoges, France",4.4,865,https://www.geyracois-restaurant.fr/,45.8312027,1.262855,"establishment, food, point_of_interest, restaurant",False
Le Comptoir St Jean,"14 bis Bd de la Cité, 87000 Limoges, France",4.6,827,http://www.lecomptoirsaintjean.com/,45.82995649999999,1.2642817,"bar, establishment, food, point_of_interest, restaurant",False
Au relais Louis Blanc,"Bis 29, Bd Louis Blanc, 87000 Limoges, France",4.5,889,https://aurelaislouisblanc.fr/,45.827709,1.2610288,"establishment, food, meal_takeaway, point_of_interest, restaurant",False
La Taverne - Table de caractère - Limoges,"6 Bd Victor Hugo, 87000 Limoges, France",4.1,776,https://www.lestavernes.com/limoges/,45.83244740000001,1.25507,"establishment, food, point_of_interest, restaurant",False
L'Irlandais,"2 Rue Haute Cité, 87000 Limoges, France",4.6,2239,https://lirlandais.net/,45.8294936,1.2653996,"bar, establishment, food, point_of_interest, restaurant",False
Maison Gloria,"15 Pl. Jean Jaurès, 37000 Tours, France",4.4,907,https://www.maison-gloria-tours.fr/,47.3892301,0.6887128,"establishment, food, point_of_interest, restaurant",False
Le Chien Fou,"7 Rue de la Grosse Tour, 37000 Tours, France",4.5,1288,https://www.chien-fou-bistrot.fr/,47.39389329999999,0.6790965,"establishment, food, point_of_interest, restaurant",False
Au jardin Comme à La Maison,"21 Rue Constantine, 37000 Tours, France",4.7,706,https://www.au-jardin-comme-a-la-maison-restaurant-tours.fr/,47.3952967,0.6839389,"bar, establishment, food, point_of_interest, restaurant",False
Le Céci’Bon,"35 Rue Briçonnet, 37000 Tours, France",4.8,398,https://www.lececibon.fr/,47.394562,0.681429,"establishment, food, point_of_interest, restaurant",False
Restaurant Les Canailles,"123 Rue Colbert, 37000 Tours, France",4.6,1034,https://www.instagram.com/lescanaillesrestaurant,47.3960787,0.6920417999999999,"establishment, food, point_of_interest, restaurant",False
CHEZ MADIE,"37 Rue Briçonnet, 37000 Tours, France",4.7,944,http://chez-madie-restaurant-tours.eatbu.com/,47.39447759999999,0.6813513999999999,"bar, establishment, food, point_of_interest, restaurant",False
La Maison des Halles,"19 Pl. des Halles, 37000 Tours, France",4.7,1063,https://lamaisondeshalles.eatbu.com/,47.39207620000001,0.6798048,"establishment, food, point_of_interest, restaurant",False
Les Gens Heureux,"5 Rue Marceau, 37000 Tours, France",4.5,1059,https://www.gensheureux.fr/,47.394663,0.6844469999999999,"establishment, food, point_of_interest, restaurant",False
Le Vieux Mûrier,"11 Pl. Plumereau, 37000 Tours, France",4.4,772,http://levieuxmurier.fr/,47.3944812,0.6814541,"bar, establishment, food, point_of_interest, restaurant",False
Restaurant Le Turon,"94 Rue Colbert, 37000 Tours, France",4.7,1740,http://www.leturon.fr/,47.3961063,0.6914445,"establishment, food, point_of_interest, restaurant",False
Le Frenchy Resto - Restaurant & Burgers maison,"14 Pl. du Grand Marché, 37000 Tours, France",4.6,1375,https://www.frenchysburger.com/le-frenchy-resto/,47.3937809,0.6807705,"establishment, food, point_of_interest, restaurant",False
Le Bon Temps,"5 Av. de Grammont, 37000 Tours, France",4.5,3443,http://www.restaurantlebontemps.fr/,47.3882754,0.689395,"establishment, food, point_of_interest, restaurant",False
La Table Ronde,"126 Rue Colbert, 37000 Tours, France",4.9,453,https://latableronde37.eatbu.com/,47.3962519,0.6925791,"bar, establishment, food, point_of_interest, restaurant",False
Casse-Cailloux,"26 Rue Jehan Fouquet, 37000 Tours, France",4.7,539,http://www.facebook.com/laurendeau37,47.38783040000001,0.6837167000000001,"establishment, food, point_of_interest, restaurant",False
Brasserie Madeleine Tours,"48 Rue Nationale, 37000 Tours, France",4.1,5692,https://www.brasseriemadeleine-tours.fr/,47.39407869999999,0.6874904,"establishment, food, point_of_interest, restaurant",False
Brasserie de l'Univers,"8 Pl. Jean Jaurès, 37000 Tours, France",4.2,6087,http://www.brasserie-univers.com/,47.3897684,0.6895676,"bar, cafe, establishment, food, point_of_interest, restaurant",False
Le Marché Gourmand,"27 Rue du Grand Marché, 37000 Tours, France",4.5,740,http://www.lemarchegourmand.fr/,47.39430189999999,0.6802252,"establishment, food, point_of_interest, restaurant",False
Kabuli,"10 Pl. du Général Leclerc, 37000 Tours, France",4.8,444,https://kabuli.fr/,47.3904503,0.6941412,"establishment, food, point_of_interest, restaurant",False
La Souris Gourmande - Restaurant Tours,"100 Rue Colbert, 37000 Tours, France",4.4,1244,https://www.lasourisgourmande37.fr/,47.39615269999999,0.6916775,"establishment, food, point_of_interest, restaurant",False
Le Comptoir de Mamie Bigoude Tours Centre,"22 Rue de Châteauneuf, 37000 Tours, France",4.4,2366,http://comptoirmamiebigoude.com/,47.3932598,0.6816028,"establishment, food, point_of_interest, restaurant",False
Le Quai,"15 Quai Belu, 80000 Amiens, France",4.4,3407,https://restaurant-lequai.fr/,49.89641659999999,2.3046681,"establishment, food, point_of_interest, restaurant",False
Les Petits Bonheurs,"30 Pl. René Goblet, 80000 Amiens, France",4.8,501,http://les-petits-bonheurs-restaurant-amiens.eatbu.com/,49.8909737,2.302682,"cafe, establishment, food, liquor_store, point_of_interest, restaurant, store",False
BABO ! - Restaurant Traiteur brasero,"18 Rue Dusevel, 80000 Amiens, France",4.7,739,https://baborestaurant.fr/,49.8943027,2.2998047,"establishment, food, point_of_interest, restaurant",False
Ail des Ours,"11 Rue Sire Firmin Leroux, 80000 Amiens, France",4.7,1031,http://www.aildesours-restaurant.fr/,49.8931933,2.2991613,"establishment, food, point_of_interest, restaurant",False
Brasserie de l'horloge,"7 Rue des Sergents, 80000 Amiens, France",4.4,1945,https://www.brasseriedelhorloge.fr/,49.894027,2.2983475,"establishment, food, point_of_interest, restaurant",False
La Brasserie Jules,"18 Bd d'Alsace Lorraine, 80000 Amiens, France",4.4,1728,https://www.brasserie-jules.fr/,49.89197739999999,2.3079003,"establishment, food, point_of_interest, restaurant",False
Querelle,"10 Rue Sire Firmin Leroux, 80000 Amiens, France",4.8,396,http://www.querelle.net/,49.8929018,2.2993693,"establishment, food, point_of_interest, restaurant",False
Les étoiles,"22 Rue Sire Firmin Leroux, 80000 Amiens, France",4.8,256,https://les-etoiles-amiens.eatbu.com/?lang=fr,49.8931665,2.2995531,"establishment, food, point_of_interest, restaurant",False
L'Edito Amiens,"42 Rue de Noyon, 80000 Amiens, France",4.7,337,https://www.restaurant-ledito-amiens.fr/?utm_source=google&utm_medium=organic&utm_campaign=mybusiness-website,49.8904806,2.3057843,"bar, cafe, establishment, food, point_of_interest, restaurant, store",False
Le Lobby - Les Marissons,"Rue d'engoulvent Pont, 62 Rue Motte, 80000 Amiens, France",4.5,1250,http://www.lelobby80.fr/,49.8965967,2.303865,"bar, establishment, food, point_of_interest, restaurant",False
La Manufacture,"5 Rue de Metz, 80000 Amiens, France",4.4,1199,https://www.la-manufacture-amiens.fr/,49.8950294,2.2952169,"establishment, food, point_of_interest, restaurant",False
Les Orfèvres,"14 Rue des Orfèvres, 80000 Amiens, France",4.5,584,http://www.lesorfevres.com/,49.8958208,2.2991908,"establishment, food, point_of_interest, restaurant",False
Ô Jardin,"57 Chem. de Halage, 80000 Amiens, France",4.2,2104,https://www.o-jardin-amiens.fr/,49.8944809,2.3151959,"establishment, food, point_of_interest, restaurant",False
La Ferme,"2 Rue Robert Pierre, 80000 Amiens, France",4.4,632,,49.8930556,2.2897222,"establishment, food, point_of_interest, restaurant",True
L'improviste,"16 Pl. René Goblet, 80000 Amiens, France",4.3,451,https://limproviste-restaurant.metro.rest/,49.8912092,2.3022607,"bar, establishment, food, liquor_store, point_of_interest, restaurant, store",False
Le Dos D'Âne,"1 Rue de la Dodane, 80000 Amiens, France",4.4,1212,https://www.ledosdane.fr/,49.8966995,2.3041344,"bar, cafe, establishment, food, point_of_interest, restaurant, store",False
Les Bouchées Doubles,"11 Rue Gresset, 80000 Amiens, France",4.5,1582,https://www.restaurantlesboucheesdoubles.fr/,49.8937627,2.2943133,"establishment, food, point_of_interest, restaurant",False
Okinawa,"7 Rue Léon Blum, 80000 Amiens, France",4.6,1588,http://okinawa-amiens.com/,49.8943677,2.2942425,"establishment, food, point_of_interest, restaurant",False
Les Marronniers,"27 Rue de Metz, 80000 Amiens, France",4.5,769,https://www.restaurantlesmarronniers.com/,49.8952427,2.293904,"establishment, food, point_of_interest, restaurant",False
Restaurant Instinct Amiens,"44 Rue Jean Catelas, 80000 Amiens, France",4.9,350,https://www.instinct-restaurant.fr/,49.89643239999999,2.2893345,"establishment, food, point_of_interest, restaurant",False
Le 17,"1 Rue Cité Bartissol, 66000 Perpignan, France",4.8,803,,42.7005761,2.8964871,"establishment, food, point_of_interest, restaurant",True
Restaurant Le Sujet,"2 Pl. Albert de Belgique, 66000 Perpignan, France",4.8,387,https://lesujet-restaurant.fr/,42.6959676,2.8829536,"establishment, food, point_of_interest, restaurant",False
La table de Thomas🥩 | Restaurant viande - Restaurant | Perpignan,"mas palegry, Chem. du Mas Palegry, 66000 Perpignan, France",4.6,2651,http://www.latabledethomas.com/,42.6559951,2.9067946,"bar, establishment, food, point_of_interest, restaurant",False
